Unnamed: 0,Zillow Id,Zestimate,Street,City,ZipCode,lastSold,Bedrooms,typeofhome,Squareft,YearBuilt,CountTax,Latitude,Longitude,LastSoldDate,Z_index,LastSold,Zindex
0,93123448,345560.0,256 Buckshot Ln,TIGER,30576.0,"OrderedDict([('@currency', 'USD'), ('#text', '285000')])",4.0,SingleFamily,4200.0,2001.0,290723.0,34.82204,-83.44689,10/1/2002,"165,300",285000.0,"OrderedDict([('@id', '14139'), ('@name', 'Tiger'), ('@type', 'city'), ('zindexValue', '165,300'), ('links', OrderedDict([('overview', 'http://www.zillow.com/local-info/GA-Tiger/r_14139/'), ('forSaleByOwner', 'http://www.zillow.com/tiger-ga/fsbo/'), ('forSale', 'http://www.zillow.com/tiger-ga/')]))])"
1,82452558,155747.0,65 Sunrise Dr,GRANTVILLE,30220.0,"OrderedDict([('@currency', 'USD'), ('#text', '54000')])",4.0,SingleFamily,1496.0,2006.0,118800.0,33.22914,-84.82529,11/19/2010,"113,700",54000.0,"OrderedDict([('@id', '45530'), ('@name', 'Grantville'), ('@type', 'city'), ('zindexValue', '113,700'), ('links', OrderedDict([('overview', 'http://www.zillow.com/local-info/GA-Grantville/r_45530/'), ('forSaleByOwner', 'http://www.zillow.com/grantville-ga/fsbo/'), ('forSale', 'http://www.zillow.com/grantville-ga/')]))])"
2,111793656,58879.0,2085 Jackson Rd,ROBERTA,31078.0,"OrderedDict([('@currency', 'USD'), ('#text', '56750')])",3.0,Mobile,1152.0,1995.0,57838.0,32.69229,-83.95092,2/12/2018,,56750.0,"OrderedDict([('@id', '18858'), ('@name', 'Knoxville'), ('@type', 'city'), ('links', OrderedDict([('overview', 'http://www.zillow.com/local-info/GA-Knoxville/r_18858/'), ('forSaleByOwner', 'http://www.zillow.com/knoxville-ga/fsbo/'), ('forSale', 'http://www.zillow.com/knoxville-ga/')]))])"
3,2139757076,150542.0,6301 Chief O F Love Rd B-5,Savannah,31419.0,,2.0,Condominium,1300.0,2008.0,,31.993878999999996,-81.281182,,,,"OrderedDict([('@id', '763636'), ('@name', 'The Village/Rio/Armstrong'), ('@type', 'neighborhood'), ('links', OrderedDict([('overview', 'http://www.zillow.com/local-info/GA-Savannah/The-Village_Rio_Armstrong/r_763636/'), ('forSaleByOwner', 'http://www.zillow.com/the-village-rio-armstrong-savannah-ga/fsbo/'), ('forSale', 'http://www.zillow.com/the-village-rio-armstrong-savannah-ga/')]))])"
4,221933009,233334.0,1900 Bell Ln,Braselton,30517.0,"OrderedDict([('@currency', 'USD'), ('#text', '210999')])",0.0,SingleFamily,2653.0,2006.0,192468.0,34.108109000000006,-83.790392,5/26/2017,"275,900",210999.0,"OrderedDict([('@id', '41949'), ('@name', 'Braselton'), ('@type', 'city'), ('zindexValue', '275,900'), ('links', OrderedDict([('overview', 'http://www.zillow.com/local-info/GA-Braselton/r_41949/'), ('forSaleByOwner', 'http://www.zillow.com/braselton-ga/fsbo/'), ('forSale', 'http://www.zillow.com/braselton-ga/')]))])"
5,194194745,12994.0,2192 Pineville Rd,Buena Vista,31803.0,"OrderedDict([('@currency', 'USD'), ('#text', '29200')])",0.0,SingleFamily,912.0,1969.0,40464.0,32.276539,-84.54565699999999,5/4/2006,,29200.0,"OrderedDict([('@id', '51181'), ('@name', 'Buena Vista'), ('@type', 'city'), ('links', OrderedDict([('overview', 'http://www.zillow.com/local-info/GA-Buena-Vista/r_51181/'), ('forSaleByOwner', 'http://www.zillow.com/buena-vista-ga/fsbo/'), ('forSale', 'http://www.zillow.com/buena-vista-ga/')]))])"
6,2088415872,187997.0,300 Peachtree St NE APT 23B,Atlanta,30308.0,,1.0,Condominium,621.0,1962.0,,33.763824,-84.386487,,"191,200",,"OrderedDict([('@id', '269306'), ('@name', 'Downtown'), ('@type', 'neighborhood'), ('zindexValue', '191,200'), ('links', OrderedDict([('overview', 'http://www.zillow.com/local-info/GA-Atlanta/Downtown/r_269306/'), ('forSaleByOwner', 'http://www.zillow.com/downtown-atlanta-ga/fsbo/'), ('forSale', 'http://www.zillow.com/downtown-atlanta-ga/')]))])"
7,94736617,40795.0,114 Red Rd,WRAY,31798.0,"OrderedDict([('@currency', 'USD'), ('#text', '39900')])",2.0,SingleFamily,804.0,1977.0,30202.0,31.775403999999998,-83.010673,3/23/2018,,39900.0,
8,69412110,46476.0,887 Old Babb Rd,ROCKY FACE,30740.0,"OrderedDict([('@currency', 'USD'), ('#text', '9000')])",,Mobile,1120.0,1990.0,23037.0,34.74066,-85.046656,1/1/1997,"142,200",9000.0,"OrderedDict([('@id', '56279'), ('@name', 'Rocky Face'), ('@type', 'city'), ('zindexValue', '142,200'), ('links', OrderedDict([('overview', 'http://www.zillow.com/local-info/GA-Rocky-Face/r_56279/'), ('forSaleByOwner', 'http://www.zillow.com/rocky-face-ga/fsbo/'), ('forSale', 'http://www.zillow.com/rocky-face-ga/')]))])"
9,238946371,109175.0,20 Red Oak Rd,Colquitt,39837.0,"OrderedDict([('@currency', 'USD'), ('#text', '10000')])",2.0,SingleFamily,1568.0,2006.0,48737.0,31.121459,-84.69465600000001,8/23/2005,,10000.0,
10,243389417,,151 Cooper Rd SE,Calhoun,30701.0,"OrderedDict([('@currency', 'USD'), ('#text', '200000')])",0.0,SingleFamily,,,26200.0,34.44246,-84.87469899999999,1/3/2013,"126,700",200000.0,"OrderedDict([('@id', '23912'), ('@name', 'Calhoun'), ('@type', 'city'), ('zindexValue', '126,700'), ('links', OrderedDict([('overview', 'http://www.zillow.com/local-info/GA-Calhoun/r_23912/'), ('forSaleByOwner', 'http://www.zillow.com/calhoun-ga/fsbo/'), ('forSale', 'http://www.zillow.com/calhoun-ga/')]))])"
11,76399602,57489.0,4860 Pinto Dr,ALBANY,31705.0,"OrderedDict([('@currency', 'USD'), ('#text', '58000')])",3.0,SingleFamily,1375.0,1973.0,62000.0,31.460254,-84.102703,2/23/2016,"82,500",58000.0,"OrderedDict([('@id', '16701'), ('@name', 'Albany'), ('@type', 'city'), ('zindexValue', '82,500'), ('links', OrderedDict([('overview', 'http://www.zillow.com/local-info/GA-Albany/r_16701/'), ('forSaleByOwner', 'http://www.zillow.com/albany-ga/fsbo/'), ('forSale', 'http://www.zillow.com/albany-ga/')]))])"
12,235449329,14401.0,134 Speckled Cat,Sylvania,30467.0,,0.0,Mobile,1152.0,1998.0,22010.0,32.55191,-81.580028,,,,
13,69982748,134705.0,1651 White House Pkwy,WARM SPRINGS,31830.0,,2.0,SingleFamily,1920.0,1960.0,76100.0,32.894643,-84.680929,,"66,200",,"OrderedDict([('@id', '29489'), ('@name', 'Warm Springs'), ('@type', 'city'), ('zindexValue', '66,200'), ('links', OrderedDict([('overview', 'http://www.zillow.com/local-info/GA-Warm-Springs/r_29489/'), ('forSaleByOwner', 'http://www.zillow.com/warm-springs-ga/fsbo/'), ('forSale', 'http://www.zillow.com/warm-springs-ga/')]))])"
14,241955990,,95 Tolbert Rd,Rockmart,30153.0,,0.0,SingleFamily,,,7244.0,33.884058,-85.069636,,"103,500",,"OrderedDict([('@id', '8981'), ('@name', 'Rockmart'), ('@type', 'city'), ('zindexValue', '103,500'), ('links', OrderedDict([('overview', 'http://www.zillow.com/local-info/GA-Rockmart/r_8981/'), ('forSaleByOwner', 'http://www.zillow.com/rockmart-ga/fsbo/'), ('forSale', 'http://www.zillow.com/rockmart-ga/')]))])"
15,242684786,99920.0,313 E Lee St,Sylvester,31791.0,,0.0,SingleFamily,1702.0,1984.0,86402.0,31.516872999999997,-83.830652,,,,"OrderedDict([('@id', '34217'), ('@name', 'Sylvester'), ('@type', 'city'), ('links', OrderedDict([('overview', 'http://www.zillow.com/local-info/GA-Sylvester/r_34217/'), ('forSaleByOwner', 'http://www.zillow.com/sylvester-ga/fsbo/'), ('forSale', 'http://www.zillow.com/sylvester-ga/')]))])"
16,14765300,211563.0,765 Kenneth Ln,NORCROSS,30093.0,"OrderedDict([('@currency', 'USD'), ('#text', '132000')])",3.0,SingleFamily,2327.0,1970.0,171200.0,33.889257,-84.179266,2/2/1999,"149,300",132000.0,"OrderedDict([('@id', '53588'), ('@name', 'Norcross'), ('@type', 'city'), ('zindexValue', '149,300'), ('links', OrderedDict([('overview', 'http://www.zillow.com/local-info/GA-Norcross/r_53588/'), ('forSaleByOwner', 'http://www.zillow.com/norcross-ga/fsbo/'), ('forSale', 'http://www.zillow.com/norcross-ga/')]))])"
17,97480310,41933.0,20353 Us Highway 319 N,COOLIDGE,31738.0,"OrderedDict([('@currency', 'USD'), ('#text', '40000')])",3.0,SingleFamily,1628.0,1893.0,50072.0,30.971024,-83.89173199999999,2/7/2018,,40000.0,"OrderedDict([('@id', '14773'), ('@name', 'Coolidge'), ('@type', 'city'), ('links', OrderedDict([('overview', 'http://www.zillow.com/local-info/GA-Coolidge/r_14773/'), ('forSaleByOwner', 'http://www.zillow.com/coolidge-ga/fsbo/'), ('forSale', 'http://www.zillow.com/coolidge-ga/')]))])"
18,89890939,62047.0,2969 Parham Town Rd,BOWMAN,30624.0,,,SingleFamily,,1974.0,14035.0,34.181731,-83.098089,,"83,600",,"OrderedDict([('@id', '55425'), ('@name', 'Bowman'), ('@type', 'city'), ('zindexValue', '83,600'), ('links', OrderedDict([('overview', 'http://www.zillow.com/local-info/GA-Bowman/r_55425/'), ('forSaleByOwner', 'http://www.zillow.com/bowman-ga/fsbo/'), ('forSale', 'http://www.zillow.com/bowman-ga/')]))])"
19,14961277,,2119 Kennedy Dr,AUGUSTA,30904.0,,2.0,SingleFamily,1448.0,1941.0,42382.0,33.450533,-82.014663,,"46,900",,"OrderedDict([('@id', '269240'), ('@name', 'Albion Acres'), ('@type', 'neighborhood'), ('zindexValue', '46,900'), ('links', OrderedDict([('overview', 'http://www.zillow.com/local-info/GA-Augusta/Albion-Acres/r_269240/'), ('forSaleByOwner', 'http://www.zillow.com/albion-acres-augusta-ga/fsbo/'), ('forSale', 'http://www.zillow.com/albion-acres-augusta-ga/')]))])"
20,248562178,191031.0,4055 Carter Ln,Bristol,31518.0,,0.0,SingleFamily,2291.0,1998.0,165654.0,31.5128,-82.1848,,,,"OrderedDict([('@id', '37584'), ('@name', 'Bristol'), ('@type', 'city'), ('links', OrderedDict([('overview', 'http://www.zillow.com/local-info/GA-Bristol/r_37584/'), ('forSaleByOwner', 'http://www.zillow.com/bristol-ga/fsbo/'), ('forSale', 'http://www.zillow.com/bristol-ga/')]))])"
21,35798507,129419.0,10672 Redbud Ln,JONESBORO,30238.0,"OrderedDict([('@currency', 'USD'), ('#text', '138000')])",4.0,SingleFamily,1471.0,1997.0,103957.0,33.464191,-84.36512900000001,8/7/2008,,138000.0,"OrderedDict([('@id', '129521'), ('@name', 'Irondale'), ('@type', 'neighborhood'), ('links', OrderedDict([('overview', 'http://www.zillow.com/local-info/GA-Jonesboro/Irondale/r_129521/'), ('forSaleByOwner', 'http://www.zillow.com/irondale-jonesboro-ga/fsbo/'), ('forSale', 'http://www.zillow.com/irondale-jonesboro-ga/')]))])"
22,89758136,,607 Jim Petty Rd,CRANDALL,30711.0,,,SingleFamily,,,6800.0,34.917770000000004,-84.781733,,,,"OrderedDict([('@id', '17618'), ('@name', 'Crandall'), ('@type', 'city'), ('links', OrderedDict([('overview', 'http://www.zillow.com/local-info/GA-Crandall/r_17618/'), ('forSaleByOwner', 'http://www.zillow.com/crandall-ga/fsbo/'), ('forSale', 'http://www.zillow.com/crandall-ga/')]))])"
23,230946872,317954.0,2091 Highway 441,Homer,30547.0,"OrderedDict([('@currency', 'USD'), ('#text', '999948')])",0.0,SingleFamily,2300.0,2015.0,510388.0,34.39713,-83.47949100000001,2/14/2007,,999948.0,"OrderedDict([('@id', '5198'), ('@name', 'Homer'), ('@type', 'city'), ('links', OrderedDict([('overview', 'http://www.zillow.com/local-info/GA-Homer/r_5198/'), ('forSaleByOwner', 'http://www.zillow.com/homer-ga/fsbo/'), ('forSale', 'http://www.zillow.com/homer-ga/')]))])"
24,76603914,140659.0,1703 Regent Rd W,TIFTON,31793.0,"OrderedDict([('@currency', 'USD'), ('#text', '120000')])",3.0,SingleFamily,1892.0,1977.0,132983.0,31.430451,-83.54128299999999,1/24/2011,"123,800",120000.0,"OrderedDict([('@id', '34288'), ('@name', 'Tifton'), ('@type', 'city'), ('zindexValue', '123,800'), ('links', OrderedDict([('overview', 'http://www.zillow.com/local-info/GA-Tifton/r_34288/'), ('forSaleByOwner', 'http://www.zillow.com/tifton-ga/fsbo/'), ('forSale', 'http://www.zillow.com/tifton-ga/')]))])"
25,230993218,,117 Ridgeview Rd,Warthen,31094.0,"OrderedDict([('@currency', 'USD'), ('#text', '959')])",0.0,SingleFamily,,,6000.0,33.126109,-82.810362,7/28/2009,,959.0,"OrderedDict([('@id', '48337'), ('@name', 'Warthen'), ('@type', 'city'), ('links', OrderedDict([('overview', 'http://www.zillow.com/local-info/GA-Warthen/r_48337/'), ('forSaleByOwner', 'http://www.zillow.com/warthen-ga/fsbo/'), ('forSale', 'http://www.zillow.com/warthen-ga/')]))])"
26,14788193,105879.0,3351 September Morn,NORCROSS,30092.0,"OrderedDict([('@currency', 'USD'), ('#text', '74900')])",1.0,Condominium,1152.0,1983.0,74500.0,33.945871000000004,-84.251427,5/10/2004,"327,900",74900.0,"OrderedDict([('@id', '42728'), ('@name', 'Peachtree Corners'), ('@type', 'city'), ('zindexValue', '327,900'), ('links', OrderedDict([('overview', 'http://www.zillow.com/local-info/GA-Peachtree-Corners/r_42728/'), ('forSaleByOwner', 'http://www.zillow.com/peachtree-corners-ga/fsbo/'), ('forSale', 'http://www.zillow.com/peachtree-corners-ga/')]))])"
27,76435029,338094.0,119 Featherston Rd SW,ROME,30165.0,"OrderedDict([('@currency', 'USD'), ('#text', '286900')])",4.0,SingleFamily,2932.0,1986.0,318112.0,34.235791,-85.205223,10/28/2011,"116,800",286900.0,"OrderedDict([('@id', '13576'), ('@name', 'Rome'), ('@type', 'city'), ('zindexValue', '116,800'), ('links', OrderedDict([('overview', 'http://www.zillow.com/local-info/GA-Rome/r_13576/'), ('forSaleByOwner', 'http://www.zillow.com/rome-ga/fsbo/'), ('forSale', 'http://www.zillow.com/rome-ga/')]))])"
28,61918899,82399.0,2535 Walden Lake Dr,DECATUR,30035.0,"OrderedDict([('@currency', 'USD'), ('#text', '82000')])",2.0,Condominium,1344.0,2005.0,55400.0,33.708674,-84.190839,7/16/2018,,82000.0,
29,71750015,252823.0,1165 Emperor Ln,HOSCHTON,30548.0,"OrderedDict([('@currency', 'USD'), ('#text', '239000')])",4.0,SingleFamily,2138.0,2002.0,167823.0,34.065706,-83.833658,9/21/2018,,239000.0,"OrderedDict([('@id', '11982'), ('@name', 'Hoschton'), ('@type', 'city'), ('links', OrderedDict([('overview', 'http://www.zillow.com/local-info/GA-Hoschton/r_11982/'), ('forSaleByOwner', 'http://www.zillow.com/hoschton-ga/fsbo/'), ('forSale', 'http://www.zillow.com/hoschton-ga/')]))])"
30,76598013,157504.0,393 Stekoa Falls Rd,CLAYTON,30525.0,,3.0,SingleFamily,1540.0,1984.0,137809.0,34.860382,-83.396984,,,,"OrderedDict([('@id', '55543'), ('@name', 'Clayton'), ('@type', 'city'), ('links', OrderedDict([('overview', 'http://www.zillow.com/local-info/GA-Clayton/r_55543/'), ('forSaleByOwner', 'http://www.zillow.com/clayton-ga/fsbo/'), ('forSale', 'http://www.zillow.com/clayton-ga/')]))])"
31,105249314,206565.0,8098 Pinetucky,Kite,31049.0,,,SingleFamily,1413.0,1986.0,176162.0,32.687199,-82.5205,,,,"OrderedDict([('@id', '32330'), ('@name', 'Kite'), ('@type', 'city'), ('links', OrderedDict([('overview', 'http://www.zillow.com/local-info/GA-Kite/r_32330/'), ('forSaleByOwner', 'http://www.zillow.com/kite-ga/fsbo/'), ('forSale', 'http://www.zillow.com/kite-ga/')]))])"
32,105284854,533416.0,133 Hall Dr,HAMILTON,31811.0,"OrderedDict([('@currency', 'USD'), ('#text', '239900')])",4.0,SingleFamily,4157.0,1980.0,297752.0,32.683802,-85.081921,5/20/1998,"192,200",239900.0,"OrderedDict([('@id', '28800'), ('@name', 'Hamilton'), ('@type', 'city'), ('zindexValue', '192,200'), ('links', OrderedDict([('overview', 'http://www.zillow.com/local-info/GA-Hamilton/r_28800/'), ('forSaleByOwner', 'http://www.zillow.com/hamilton-ga/fsbo/'), ('forSale', 'http://www.zillow.com/hamilton-ga/')]))])"
33,14471469,264707.0,2606 Charlesgate Ave,DECATUR,30030.0,"OrderedDict([('@currency', 'USD'), ('#text', '205000')])",2.0,SingleFamily,974.0,1950.0,189600.0,33.755201,-84.283291,9/5/2016,"113,900",205000.0,"OrderedDict([('@id', '127117'), ('@name', 'Belvedere Park'), ('@type', 'city'), ('zindexValue', '113,900'), ('links', OrderedDict([('overview', 'http://www.zillow.com/local-info/GA-Belvedere-Park/r_127117/'), ('forSaleByOwner', 'http://www.zillow.com/belvedere-park-ga/fsbo/'), ('forSale', 'http://www.zillow.com/belvedere-park-ga/')]))])"
34,69851448,163839.0,128 W Tisbury Ln,POOLER,31322.0,"OrderedDict([('@currency', 'USD'), ('#text', '160000')])",3.0,SingleFamily,1479.0,2005.0,143700.0,32.058293,-81.265056,5/31/2011,,160000.0,
35,14281902,357975.0,115 Millbrook Trce,MARIETTA,30068.0,"OrderedDict([('@currency', 'USD'), ('#text', '224900')])",4.0,SingleFamily,2562.0,1976.0,272760.0,33.947207,-84.470538,11/26/2003,"255,900",224900.0,"OrderedDict([('@id', '12562'), ('@name', 'Marietta'), ('@type', 'city'), ('zindexValue', '255,900'), ('links', OrderedDict([('overview', 'http://www.zillow.com/local-info/GA-Marietta/r_12562/'), ('forSaleByOwner', 'http://www.zillow.com/marietta-ga/fsbo/'), ('forSale', 'http://www.zillow.com/marietta-ga/')]))])"
36,98000378,203317.0,1420 Haynescrest Ct,GRAYSON,30017.0,"OrderedDict([('@currency', 'USD'), ('#text', '4084643')])",3.0,SingleFamily,1933.0,2017.0,27000.0,33.862804,-83.973699,2/4/2009,"228,500",4084643.0,"OrderedDict([('@id', '45543'), ('@name', 'Grayson'), ('@type', 'city'), ('zindexValue', '228,500'), ('links', OrderedDict([('overview', 'http://www.zillow.com/local-info/GA-Grayson/r_45543/'), ('forSaleByOwner', 'http://www.zillow.com/grayson-ga/fsbo/'), ('forSale', 'http://www.zillow.com/grayson-ga/')]))])"
37,55008773,,4150 Old Milton Pkwy,ALPHARETTA,30005.0,"OrderedDict([('@currency', 'USD'), ('#text', '3200000')])",,SingleFamily,49070.0,2007.0,3139800.0,34.060432,-84.23776099999999,11/23/2013,"387,100",3200000.0,"OrderedDict([('@id', '16733'), ('@name', 'Alpharetta'), ('@type', 'city'), ('zindexValue', '387,100'), ('links', OrderedDict([('overview', 'http://www.zillow.com/local-info/GA-Alpharetta/r_16733/'), ('forSaleByOwner', 'http://www.zillow.com/alpharetta-ga/fsbo/'), ('forSale', 'http://www.zillow.com/alpharetta-ga/')]))])"
38,241701590,,420 Shade Murphy Rd,Moultrie,31768.0,"OrderedDict([('@currency', 'USD'), ('#text', '10250')])",0.0,SingleFamily,,,26000.0,31.104531,-83.806259,1/15/2013,"87,500",10250.0,"OrderedDict([('@id', '12849'), ('@name', 'Moultrie'), ('@type', 'city'), ('zindexValue', '87,500'), ('links', OrderedDict([('overview', 'http://www.zillow.com/local-info/GA-Moultrie/r_12849/'), ('forSaleByOwner', 'http://www.zillow.com/moultrie-ga/fsbo/'), ('forSale', 'http://www.zillow.com/moultrie-ga/')]))])"
39,14887878,171073.0,4314 Woodglenn Dr,GAINESVILLE,30507.0,"OrderedDict([('@currency', 'USD'), ('#text', '105158')])",3.0,SingleFamily,914.0,2003.0,100400.0,34.188543,-83.82668199999999,10/20/2011,"160,900",105158.0,"OrderedDict([('@id', '24822'), ('@name', 'Gainesville'), ('@type', 'city'), ('zindexValue', '160,900'), ('links', OrderedDict([('overview', 'http://www.zillow.com/local-info/GA-Gainesville/r_24822/'), ('forSaleByOwner', 'http://www.zillow.com/gainesville-ga/fsbo/'), ('forSale', 'http://www.zillow.com/gainesville-ga/')]))])"
40,105174089,,5889 Greenville Hwy,QUITMAN,31643.0,,,SingleFamily,1680.0,1954.0,39200.0,30.727092,-83.605502,,,,"OrderedDict([('@id', '15527'), ('@name', 'Quitman'), ('@type', 'city'), ('links', OrderedDict([('overview', 'http://www.zillow.com/local-info/GA-Quitman/r_15527/'), ('forSaleByOwner', 'http://www.zillow.com/quitman-ga/fsbo/'), ('forSale', 'http://www.zillow.com/quitman-ga/')]))])"
41,105395336,15822.0,4010 Pobiddy Rd,TALBOTTON,31827.0,,,Mobile,980.0,2000.0,9084.0,32.739888,-84.44709499999999,,"60,800",,"OrderedDict([('@id', '54685'), ('@name', 'Thomaston'), ('@type', 'city'), ('zindexValue', '60,800'), ('links', OrderedDict([('overview', 'http://www.zillow.com/local-info/GA-Thomaston/r_54685/'), ('forSaleByOwner', 'http://www.zillow.com/thomaston-ga/fsbo/'), ('forSale', 'http://www.zillow.com/thomaston-ga/')]))])"
42,54383711,222472.0,100 Williamsburg Ln,ATHENS,30605.0,,,SingleFamily,1820.0,1960.0,179119.0,33.890575,-83.32507199999999,,"149,300",,"OrderedDict([('@id', '23534'), ('@name', 'Athens'), ('@type', 'city'), ('zindexValue', '149,300'), ('links', OrderedDict([('overview', 'http://www.zillow.com/local-info/GA-Athens/r_23534/'), ('forSaleByOwner', 'http://www.zillow.com/athens-ga/fsbo/'), ('forSale', 'http://www.zillow.com/athens-ga/')]))])"
43,76379104,40255.0,109 W Forest Ave,HOMERVILLE,31634.0,,,SingleFamily,1138.0,1965.0,45400.0,31.033790000000003,-82.747562,,,,"OrderedDict([('@id', '42271'), ('@name', 'Homerville'), ('@type', 'city'), ('links', OrderedDict([('overview', 'http://www.zillow.com/local-info/GA-Homerville/r_42271/'), ('forSaleByOwner', 'http://www.zillow.com/homerville-ga/fsbo/'), ('forSale', 'http://www.zillow.com/homerville-ga/')]))])"
44,69876754,156184.0,695 Victoria Ln,OXFORD,30054.0,"OrderedDict([('@currency', 'USD'), ('#text', '32000')])",,SingleFamily,2154.0,1973.0,101300.0,33.639993,-83.863297,8/16/1995,"144,600",32000.0,"OrderedDict([('@id', '8877'), ('@name', 'Oxford'), ('@type', 'city'), ('zindexValue', '144,600'), ('links', OrderedDict([('overview', 'http://www.zillow.com/local-info/GA-Oxford/r_8877/'), ('forSaleByOwner', 'http://www.zillow.com/oxford-ga/fsbo/'), ('forSale', 'http://www.zillow.com/oxford-ga/')]))])"
45,81748324,338777.0,6722 Yatesville Hwy,YATESVILLE,31097.0,,2.0,SingleFamily,2048.0,1968.0,231034.0,32.912985,-84.131996,,,,"OrderedDict([('@id', '14735'), ('@name', 'Yatesville'), ('@type', 'city'), ('links', OrderedDict([('overview', 'http://www.zillow.com/local-info/GA-Yatesville/r_14735/'), ('forSaleByOwner', 'http://www.zillow.com/yatesville-ga/fsbo/'), ('forSale', 'http://www.zillow.com/yatesville-ga/')]))])"
46,105200963,33969.0,292 Milling Rd,HARTSFIELD,31756.0,,,SingleFamily,1700.0,2002.0,37689.0,31.127785,-83.969206,,,,"OrderedDict([('@id', '18490'), ('@name', 'Hartsfield'), ('@type', 'city'), ('links', OrderedDict([('overview', 'http://www.zillow.com/local-info/GA-Hartsfield/r_18490/'), ('forSaleByOwner', 'http://www.zillow.com/hartsfield-ga/fsbo/'), ('forSale', 'http://www.zillow.com/hartsfield-ga/')]))])"
47,105195187,71383.0,894 Shade Murphy Rd,MOULTRIE,31768.0,,,SingleFamily,1520.0,1980.0,47861.0,31.101947999999997,-83.81921,,"87,500",,"OrderedDict([('@id', '12849'), ('@name', 'Moultrie'), ('@type', 'city'), ('zindexValue', '87,500'), ('links', OrderedDict([('overview', 'http://www.zillow.com/local-info/GA-Moultrie/r_12849/'), ('forSaleByOwner', 'http://www.zillow.com/moultrie-ga/fsbo/'), ('forSale', 'http://www.zillow.com/moultrie-ga/')]))])"
48,237744008,137438.0,134 Pilgrim Ln,Powder Springs,30127.0,"OrderedDict([('@currency', 'USD'), ('#text', '105000')])",3.0,SingleFamily,1486.0,1988.0,98770.0,33.808979,-84.75579499999999,1/27/2004,"147,900",105000.0,"OrderedDict([('@id', '53985'), ('@name', 'Powder Springs'), ('@type', 'city'), ('zindexValue', '147,900'), ('links', OrderedDict([('overview', 'http://www.zillow.com/local-info/GA-Powder-Springs/r_53985/'), ('forSaleByOwner', 'http://www.zillow.com/powder-springs-ga/fsbo/'), ('forSale', 'http://www.zillow.com/powder-springs-ga/')]))])"
49,105418461,192060.0,371 Alfred Bond Dr,MACON,31217.0,,3.0,SingleFamily,4789.0,1978.0,240546.0,32.728085,-83.55462,,,,
50,14193336,476007.0,1210 Lovell Ave,TYBEE ISLAND,31328.0,,3.0,SingleFamily,1534.0,1989.0,320800.0,31.997413,-80.847785,,"382,700",,"OrderedDict([('@id', '50144'), ('@name', 'Tybee Island'), ('@type', 'city'), ('zindexValue', '382,700'), ('links', OrderedDict([('overview', 'http://www.zillow.com/local-info/GA-Tybee-Island/r_50144/'), ('forSaleByOwner', 'http://www.zillow.com/tybee-island-ga/fsbo/'), ('forSale', 'http://www.zillow.com/tybee-island-ga/')]))])"
51,89943841,138435.0,1573 Cannon Bridge Rd,DEMOREST,30535.0,"OrderedDict([('@currency', 'USD'), ('#text', '157500')])",3.0,SingleFamily,1568.0,1967.0,125150.0,34.55253,-83.569987,12/29/2005,"122,200",157500.0,"OrderedDict([('@id', '51689'), ('@name', 'Demorest'), ('@type', 'city'), ('zindexValue', '122,200'), ('links', OrderedDict([('overview', 'http://www.zillow.com/local-info/GA-Demorest/r_51689/'), ('forSaleByOwner', 'http://www.zillow.com/demorest-ga/fsbo/'), ('forSale', 'http://www.zillow.com/demorest-ga/')]))])"
52,240384383,,Usry Rd,Leslie,31764.0,,0.0,SingleFamily,,,8500.0,31.905499,-84.110105,,,,"OrderedDict([('@id', '20530'), ('@name', 'Smithville'), ('@type', 'city'), ('links', OrderedDict([('overview', 'http://www.zillow.com/local-info/GA-Smithville/r_20530/'), ('forSaleByOwner', 'http://www.zillow.com/smithville-ga/fsbo/'), ('forSale', 'http://www.zillow.com/smithville-ga/')]))])"
53,76381738,148820.0,470 Raccoon Bridge Rd,DOUGLAS,31535.0,,,SingleFamily,2296.0,1986.0,121971.0,31.438958000000003,-82.784808,,"91,900",,"OrderedDict([('@id', '51736'), ('@name', 'Douglas'), ('@type', 'city'), ('zindexValue', '91,900'), ('links', OrderedDict([('overview', 'http://www.zillow.com/local-info/GA-Douglas/r_51736/'), ('forSaleByOwner', 'http://www.zillow.com/douglas-ga/fsbo/'), ('forSale', 'http://www.zillow.com/douglas-ga/')]))])"
54,105200317,264321.0,900 Perry Rd,MOULTRIE,31788.0,"OrderedDict([('@currency', 'USD'), ('#text', '193000')])",3.0,SingleFamily,3352.0,2002.0,211330.0,31.076933,-83.656419,5/19/2016,"87,500",193000.0,"OrderedDict([('@id', '12849'), ('@name', 'Moultrie'), ('@type', 'city'), ('zindexValue', '87,500'), ('links', OrderedDict([('overview', 'http://www.zillow.com/local-info/GA-Moultrie/r_12849/'), ('forSaleByOwner', 'http://www.zillow.com/moultrie-ga/fsbo/'), ('forSale', 'http://www.zillow.com/moultrie-ga/')]))])"
55,123555736,182013.0,39 Fiore Dr,SAVANNAH,31419.0,"OrderedDict([('@currency', 'USD'), ('#text', '141500')])",,SingleFamily,,,144700.0,31.990396,-81.26709100000001,12/12/2015,,141500.0,"OrderedDict([('@id', '763639'), ('@name', 'Bradley Pointe South Area'), ('@type', 'neighborhood'), ('links', OrderedDict([('overview', 'http://www.zillow.com/local-info/GA-Savannah/Bradley-Pointe-South-Area/r_763639/'), ('forSaleByOwner', 'http://www.zillow.com/bradley-pointe-south-area-savannah-ga/fsbo/'), ('forSale', 'http://www.zillow.com/bradley-pointe-south-area-savannah-ga/')]))])"
56,54385611,247495.0,7005 Williams Dr,DOUGLASVILLE,30135.0,,3.0,SingleFamily,1664.0,2000.0,188800.0,33.614121999999995,-84.847903,,"140,700",,"OrderedDict([('@id', '11140'), ('@name', 'Douglasville'), ('@type', 'city'), ('zindexValue', '140,700'), ('links', OrderedDict([('overview', 'http://www.zillow.com/local-info/GA-Douglasville/r_11140/'), ('forSaleByOwner', 'http://www.zillow.com/douglasville-ga/fsbo/'), ('forSale', 'http://www.zillow.com/douglasville-ga/')]))])"
57,82628530,127781.0,3345 Parc Dr SW,ATLANTA,30311.0,"OrderedDict([('@currency', 'USD'), ('#text', '164900')])",3.0,Townhouse,1610.0,2006.0,64200.0,33.6986,-84.496954,1/15/2008,"102,900",164900.0,"OrderedDict([('@id', '269436'), ('@name', 'Southwest'), ('@type', 'neighborhood'), ('zindexValue', '102,900'), ('links', OrderedDict([('overview', 'http://www.zillow.com/local-info/GA-Atlanta/Southwest/r_269436/'), ('forSaleByOwner', 'http://www.zillow.com/southwest-atlanta-ga/fsbo/'), ('forSale', 'http://www.zillow.com/southwest-atlanta-ga/')]))])"
58,223793453,,210 E Weed St,Saint Marys,31558.0,,0.0,SingleFamily,,,28500.0,30.722427000000003,-81.545096,,"158,900",,"OrderedDict([('@id', '40706'), ('@name', 'Saint Marys'), ('@type', 'city'), ('zindexValue', '158,900'), ('links', OrderedDict([('overview', 'http://www.zillow.com/local-info/GA-Saint-Marys/r_40706/'), ('forSaleByOwner', 'http://www.zillow.com/saint-marys-ga/fsbo/'), ('forSale', 'http://www.zillow.com/saint-marys-ga/')]))])"
59,112002715,,20750 Ga Highway 112,Toomsboro,31090.0,,,SingleFamily,1903.0,1987.0,336075.0,32.790038,-83.072998,,,,"OrderedDict([('@id', '9423'), ('@name', 'Toomsboro'), ('@type', 'city'), ('links', OrderedDict([('overview', 'http://www.zillow.com/local-info/GA-Toomsboro/r_9423/'), ('forSaleByOwner', 'http://www.zillow.com/toomsboro-ga/fsbo/'), ('forSale', 'http://www.zillow.com/toomsboro-ga/')]))])"
60,126771796,22637.0,461 Palm Tree Rd,TRION,30753.0,"OrderedDict([('@currency', 'USD'), ('#text', '3000')])",,Mobile,1216.0,1999.0,24529.0,34.535863,-85.28458499999999,2/20/1992,"70,900",3000.0,"OrderedDict([('@id', '20844'), ('@name', 'Trion'), ('@type', 'city'), ('zindexValue', '70,900'), ('links', OrderedDict([('overview', 'http://www.zillow.com/local-info/GA-Trion/r_20844/'), ('forSaleByOwner', 'http://www.zillow.com/trion-ga/fsbo/'), ('forSale', 'http://www.zillow.com/trion-ga/')]))])"
61,14461946,105483.0,4417 Cypress Ridge Ln,STONE MOUNTAIN,30083.0,"OrderedDict([('@currency', 'USD'), ('#text', '75400')])",3.0,SingleFamily,1440.0,1975.0,82800.0,33.752697999999995,-84.206757,11/21/2005,"130,900",75400.0,"OrderedDict([('@id', '41084'), ('@name', 'Stone Mountain'), ('@type', 'city'), ('zindexValue', '130,900'), ('links', OrderedDict([('overview', 'http://www.zillow.com/local-info/GA-Stone-Mountain/r_41084/'), ('forSaleByOwner', 'http://www.zillow.com/stone-mountain-ga/fsbo/'), ('forSale', 'http://www.zillow.com/stone-mountain-ga/')]))])"
62,14814631,184803.0,1520 Maple Pointe Ct,LAWRENCEVILLE,30043.0,"OrderedDict([('@currency', 'USD'), ('#text', '153500')])",3.0,SingleFamily,1404.0,1996.0,146000.0,33.966598,-84.073972,5/19/2005,"187,200",153500.0,"OrderedDict([('@id', '5573'), ('@name', 'Lawrenceville'), ('@type', 'city'), ('zindexValue', '187,200'), ('links', OrderedDict([('overview', 'http://www.zillow.com/local-info/GA-Lawrenceville/r_5573/'), ('forSaleByOwner', 'http://www.zillow.com/lawrenceville-ga/fsbo/'), ('forSale', 'http://www.zillow.com/lawrenceville-ga/')]))])"
63,14351436,99700.0,3549 Ashley Station Dr SW,MARIETTA,30008.0,"OrderedDict([('@currency', 'USD'), ('#text', '33500')])",3.0,Condominium,1426.0,1987.0,66700.0,33.865483000000005,-84.606724,5/7/2014,"255,900",33500.0,"OrderedDict([('@id', '12562'), ('@name', 'Marietta'), ('@type', 'city'), ('zindexValue', '255,900'), ('links', OrderedDict([('overview', 'http://www.zillow.com/local-info/GA-Marietta/r_12562/'), ('forSaleByOwner', 'http://www.zillow.com/marietta-ga/fsbo/'), ('forSale', 'http://www.zillow.com/marietta-ga/')]))])"
64,35846557,115059.0,173 Laurel Ave SW,ATLANTA,30314.0,"OrderedDict([('@currency', 'USD'), ('#text', '18000')])",3.0,SingleFamily,1258.0,1948.0,17000.0,33.750513,-84.44054,4/9/1999,"63,900",18000.0,"OrderedDict([('@id', '269386'), ('@name', 'Mozley Park'), ('@type', 'neighborhood'), ('zindexValue', '63,900'), ('links', OrderedDict([('overview', 'http://www.zillow.com/local-info/GA-Atlanta/Mozley-Park/r_269386/'), ('forSaleByOwner', 'http://www.zillow.com/mozley-park-atlanta-ga/fsbo/'), ('forSale', 'http://www.zillow.com/mozley-park-atlanta-ga/')]))])"
65,105446353,53087.0,178 Nectar Rd,TY TY,31795.0,,,SingleFamily,1436.0,1977.0,46472.0,31.418055,-83.697799,,,,"OrderedDict([('@id', '34370'), ('@name', 'Ty Ty'), ('@type', 'city'), ('links', OrderedDict([('overview', 'http://www.zillow.com/local-info/GA-Ty-Ty/r_34370/'), ('forSaleByOwner', 'http://www.zillow.com/ty-ty-ga/fsbo/'), ('forSale', 'http://www.zillow.com/ty-ty-ga/')]))])"
66,15009961,149687.0,1850 Brandy Woods Trl SE,CONYERS,30013.0,,4.0,SingleFamily,2001.0,1983.0,89500.0,33.576824,-84.002988,,"134,200",,"OrderedDict([('@id', '51534'), ('@name', 'Conyers'), ('@type', 'city'), ('zindexValue', '134,200'), ('links', OrderedDict([('overview', 'http://www.zillow.com/local-info/GA-Conyers/r_51534/'), ('forSaleByOwner', 'http://www.zillow.com/conyers-ga/fsbo/'), ('forSale', 'http://www.zillow.com/conyers-ga/')]))])"
67,79988922,165525.0,5033 Longview Walk,DECATUR,30035.0,"OrderedDict([('@currency', 'USD'), ('#text', '3285000')])",,SingleFamily,1352.0,,12000.0,33.708976,-84.18755,2/16/2005,,3285000.0,
68,243252906,220210.0,229 Douthit Rd,Sylvester,31791.0,,0.0,SingleFamily,1324.0,1985.0,178163.0,31.450733000000003,-83.859022,,,,"OrderedDict([('@id', '34217'), ('@name', 'Sylvester'), ('@type', 'city'), ('links', OrderedDict([('overview', 'http://www.zillow.com/local-info/GA-Sylvester/r_34217/'), ('forSaleByOwner', 'http://www.zillow.com/sylvester-ga/fsbo/'), ('forSale', 'http://www.zillow.com/sylvester-ga/')]))])"
69,105351541,71265.0,1225 Walter Sams Rd,WINTERVILLE,30683.0,"OrderedDict([('@currency', 'USD'), ('#text', '32000')])",,Mobile,700.0,1994.0,54180.0,33.924049,-83.25032900000001,5/10/1995,"139,600",32000.0,"OrderedDict([('@id', '7982'), ('@name', 'Winterville'), ('@type', 'city'), ('zindexValue', '139,600'), ('links', OrderedDict([('overview', 'http://www.zillow.com/local-info/GA-Winterville/r_7982/'), ('forSaleByOwner', 'http://www.zillow.com/winterville-ga/fsbo/'), ('forSale', 'http://www.zillow.com/winterville-ga/')]))])"
70,239555803,17250.0,3096 Deliverance Church Rd,Newton,39870.0,"OrderedDict([('@currency', 'USD'), ('#text', '875')])",0.0,SingleFamily,,,21500.0,31.380846999999996,-84.585706,6/17/2014,,875.0,"OrderedDict([('@id', '23517'), ('@name', 'Arlington'), ('@type', 'city'), ('links', OrderedDict([('overview', 'http://www.zillow.com/local-info/GA-Arlington/r_23517/'), ('forSaleByOwner', 'http://www.zillow.com/arlington-ga/fsbo/'), ('forSale', 'http://www.zillow.com/arlington-ga/')]))])"
71,94738352,25298.0,175 Turkey Creek Ln,FITZGERALD,31750.0,,3.0,Mobile,1440.0,1979.0,16944.0,31.687031,-83.21432800000001,,,,"OrderedDict([('@id', '24715'), ('@name', 'Fitzgerald'), ('@type', 'city'), ('links', OrderedDict([('overview', 'http://www.zillow.com/local-info/GA-Fitzgerald/r_24715/'), ('forSaleByOwner', 'http://www.zillow.com/fitzgerald-ga/fsbo/'), ('forSale', 'http://www.zillow.com/fitzgerald-ga/')]))])"
72,105451508,65258.0,1417 Gleaton Rd,WARWICK,31796.0,"OrderedDict([('@currency', 'USD'), ('#text', '49000')])",,SingleFamily,1120.0,2006.0,70400.0,31.779241,-83.812599,2/17/2010,,49000.0,"OrderedDict([('@id', '48338'), ('@name', 'Warwick'), ('@type', 'city'), ('links', OrderedDict([('overview', 'http://www.zillow.com/local-info/GA-Warwick/r_48338/'), ('forSaleByOwner', 'http://www.zillow.com/warwick-ga/fsbo/'), ('forSale', 'http://www.zillow.com/warwick-ga/')]))])"
73,14532102,392315.0,2037 Briarcliff Rd NE,ATLANTA,30329.0,"OrderedDict([('@currency', 'USD'), ('#text', '77000')])",3.0,SingleFamily,1998.0,1953.0,291300.0,33.812682,-84.333448,11/19/1986,"388,700",77000.0,"OrderedDict([('@id', '130532'), ('@name', 'North Druid Hills'), ('@type', 'city'), ('zindexValue', '388,700'), ('links', OrderedDict([('overview', 'http://www.zillow.com/local-info/GA-North-Druid-Hills/r_130532/'), ('forSaleByOwner', 'http://www.zillow.com/north-druid-hills-ga/fsbo/'), ('forSale', 'http://www.zillow.com/north-druid-hills-ga/')]))])"
74,227335196,,770 Colquitt County Line Rd,Omega,31775.0,,0.0,SingleFamily,,,3075.0,31.329858,-83.592543,,,,"OrderedDict([('@id', '40155'), ('@name', 'Omega'), ('@type', 'city'), ('links', OrderedDict([('overview', 'http://www.zillow.com/local-info/GA-Omega/r_40155/'), ('forSaleByOwner', 'http://www.zillow.com/omega-ga/fsbo/'), ('forSale', 'http://www.zillow.com/omega-ga/')]))])"
75,125377038,366118.0,250 Chubb Rd SW,LINDALE,30147.0,,,SingleFamily,3587.0,2014.0,342454.0,34.105534000000006,-85.261534,,"125,000",,"OrderedDict([('@id', '48679'), ('@name', 'Cave Spring'), ('@type', 'city'), ('zindexValue', '125,000'), ('links', OrderedDict([('overview', 'http://www.zillow.com/local-info/GA-Cave-Spring/r_48679/'), ('forSaleByOwner', 'http://www.zillow.com/cave-spring-ga/fsbo/'), ('forSale', 'http://www.zillow.com/cave-spring-ga/')]))])"
76,231017893,20512.0,148 Frankie Ln,Uvalda,30473.0,,3.0,Mobile,1152.0,1986.0,14013.0,31.998934000000002,-82.39735300000001,,,,
77,105345413,171806.0,2040 Newborn Rd,RUTLEDGE,30663.0,,,SingleFamily,1492.0,1988.0,155803.0,33.589083,-83.63311,,"199,300",,"OrderedDict([('@id', '50579'), ('@name', 'Rutledge'), ('@type', 'city'), ('zindexValue', '199,300'), ('links', OrderedDict([('overview', 'http://www.zillow.com/local-info/GA-Rutledge/r_50579/'), ('forSaleByOwner', 'http://www.zillow.com/rutledge-ga/fsbo/'), ('forSale', 'http://www.zillow.com/rutledge-ga/')]))])"
78,242572062,31171.0,431 Carroll Rd,Roberta,31078.0,,0.0,Mobile,,,29900.0,32.685285,-84.054586,,,,"OrderedDict([('@id', '56189'), ('@name', 'Roberta'), ('@type', 'city'), ('links', OrderedDict([('overview', 'http://www.zillow.com/local-info/GA-Roberta/r_56189/'), ('forSaleByOwner', 'http://www.zillow.com/roberta-ga/fsbo/'), ('forSale', 'http://www.zillow.com/roberta-ga/')]))])"
79,104301827,,3506 W Cove Rd,Chickamauga,30707.0,"OrderedDict([('@currency', 'USD'), ('#text', '130000')])",,SingleFamily,,,35000.0,34.724954,-85.42576600000001,5/28/2007,"110,300",130000.0,"OrderedDict([('@id', '17427'), ('@name', 'Chickamauga'), ('@type', 'city'), ('zindexValue', '110,300'), ('links', OrderedDict([('overview', 'http://www.zillow.com/local-info/GA-Chickamauga/r_17427/'), ('forSaleByOwner', 'http://www.zillow.com/chickamauga-ga/fsbo/'), ('forSale', 'http://www.zillow.com/chickamauga-ga/')]))])"
80,99925789,1089743.0,811 Ocean Blvd,SAINT SIMONS ISLAND,31522.0,"OrderedDict([('@currency', 'USD'), ('#text', '800000')])",4.0,SingleFamily,2894.0,1930.0,924300.0,31.136578000000004,-81.38643,1/1/2000,"344,000",800000.0,"OrderedDict([('@id', '29611'), ('@name', 'Saint Simons Island'), ('@type', 'city'), ('zindexValue', '344,000'), ('links', OrderedDict([('overview', 'http://www.zillow.com/local-info/GA-Saint-Simons-Island/r_29611/'), ('forSaleByOwner', 'http://www.zillow.com/saint-simons-island-ga/fsbo/'), ('forSale', 'http://www.zillow.com/saint-simons-island-ga/')]))])"
81,14351186,145871.0,2342 Glencairn Ln SW,MARIETTA,30008.0,,3.0,SingleFamily,1495.0,1991.0,88110.0,33.865326,-84.619671,,"255,900",,"OrderedDict([('@id', '12562'), ('@name', 'Marietta'), ('@type', 'city'), ('zindexValue', '255,900'), ('links', OrderedDict([('overview', 'http://www.zillow.com/local-info/GA-Marietta/r_12562/'), ('forSaleByOwner', 'http://www.zillow.com/marietta-ga/fsbo/'), ('forSale', 'http://www.zillow.com/marietta-ga/')]))])"
82,105299914,169132.0,641 Oak Hampton Rd,FLEMING,31309.0,"OrderedDict([('@currency', 'USD'), ('#text', '197000')])",3.0,SingleFamily,1580.0,2000.0,149968.0,31.855096000000003,-81.436228,12/11/2006,,197000.0,"OrderedDict([('@id', '18119'), ('@name', 'Fleming'), ('@type', 'city'), ('links', OrderedDict([('overview', 'http://www.zillow.com/local-info/GA-Fleming/r_18119/'), ('forSaleByOwner', 'http://www.zillow.com/fleming-ga/fsbo/'), ('forSale', 'http://www.zillow.com/fleming-ga/')]))])"
83,80268454,174297.0,178 Camry Ln,GRAYSON,30017.0,"OrderedDict([('@currency', 'USD'), ('#text', '157900')])",2.0,SingleFamily,1452.0,2005.0,137100.0,33.868513,-83.977283,3/18/2005,"228,500",157900.0,"OrderedDict([('@id', '45543'), ('@name', 'Grayson'), ('@type', 'city'), ('zindexValue', '228,500'), ('links', OrderedDict([('overview', 'http://www.zillow.com/local-info/GA-Grayson/r_45543/'), ('forSaleByOwner', 'http://www.zillow.com/grayson-ga/fsbo/'), ('forSale', 'http://www.zillow.com/grayson-ga/')]))])"
84,14130245,291017.0,103 Montford Rd,SAVANNAH,31410.0,,3.0,SingleFamily,2133.0,1970.0,227700.0,31.991296999999996,-80.992994,,"242,100",,"OrderedDict([('@id', '23315'), ('@name', 'Wilmington Island'), ('@type', 'city'), ('zindexValue', '242,100'), ('links', OrderedDict([('overview', 'http://www.zillow.com/local-info/GA-Wilmington-Island/r_23315/'), ('forSaleByOwner', 'http://www.zillow.com/wilmington-island-ga/fsbo/'), ('forSale', 'http://www.zillow.com/wilmington-island-ga/')]))])"
85,71124947,157581.0,195 Lanella Pkwy,CONYERS,30013.0,"OrderedDict([('@currency', 'USD'), ('#text', '156000')])",3.0,SingleFamily,1851.0,1999.0,114400.0,33.574171,-83.991771,1/31/2018,"134,200",156000.0,"OrderedDict([('@id', '51534'), ('@name', 'Conyers'), ('@type', 'city'), ('zindexValue', '134,200'), ('links', OrderedDict([('overview', 'http://www.zillow.com/local-info/GA-Conyers/r_51534/'), ('forSaleByOwner', 'http://www.zillow.com/conyers-ga/fsbo/'), ('forSale', 'http://www.zillow.com/conyers-ga/')]))])"
86,247259877,,Railroad St,Dudley,31022.0,,0.0,SingleFamily,,,3600.0,32.539460999999996,-83.078785,,,,"OrderedDict([('@id', '31271'), ('@name', 'Dudley'), ('@type', 'city'), ('links', OrderedDict([('overview', 'http://www.zillow.com/local-info/GA-Dudley/r_31271/'), ('forSaleByOwner', 'http://www.zillow.com/dudley-ga/fsbo/'), ('forSale', 'http://www.zillow.com/dudley-ga/')]))])"
87,76362033,205261.0,1833 Nottingham Rd,STATESBORO,30461.0,,3.0,SingleFamily,1906.0,2004.0,190398.0,32.41207,-81.689163,,"134,700",,"OrderedDict([('@id', '20639'), ('@name', 'Statesboro'), ('@type', 'city'), ('zindexValue', '134,700'), ('links', OrderedDict([('overview', 'http://www.zillow.com/local-info/GA-Statesboro/r_20639/'), ('forSaleByOwner', 'http://www.zillow.com/statesboro-ga/fsbo/'), ('forSale', 'http://www.zillow.com/statesboro-ga/')]))])"
88,14673304,292497.0,489 Karen Dr,ALPHARETTA,30009.0,,4.0,SingleFamily,1292.0,1971.0,210400.0,34.0622,-84.297725,,"387,100",,"OrderedDict([('@id', '16733'), ('@name', 'Alpharetta'), ('@type', 'city'), ('zindexValue', '387,100'), ('links', OrderedDict([('overview', 'http://www.zillow.com/local-info/GA-Alpharetta/r_16733/'), ('forSaleByOwner', 'http://www.zillow.com/alpharetta-ga/fsbo/'), ('forSale', 'http://www.zillow.com/alpharetta-ga/')]))])"
89,93121016,22000.0,8627 Raulerson Rd,PATTERSON,31557.0,,2.0,Mobile,896.0,2006.0,25287.0,31.310603999999998,-81.99960899999999,,,,"OrderedDict([('@id', '5217'), ('@name', 'Hortense'), ('@type', 'city'), ('links', OrderedDict([('overview', 'http://www.zillow.com/local-info/GA-Hortense/r_5217/'), ('forSaleByOwner', 'http://www.zillow.com/hortense-ga/fsbo/'), ('forSale', 'http://www.zillow.com/hortense-ga/')]))])"
90,119006492,160866.0,1606 John Burch Rd,FOLKSTON,31537.0,,,SingleFamily,1496.0,2001.0,152970.0,30.775931,-82.032601,,,,
91,69414084,97664.0,2710 Suncrest Dr,DALTON,30720.0,"OrderedDict([('@currency', 'USD'), ('#text', '78500')])",,SingleFamily,1417.0,1966.0,94835.0,34.715239000000004,-84.983213,12/1/1997,"117,800",78500.0,"OrderedDict([('@id', '38130'), ('@name', 'Dalton'), ('@type', 'city'), ('zindexValue', '117,800'), ('links', OrderedDict([('overview', 'http://www.zillow.com/local-info/GA-Dalton/r_38130/'), ('forSaleByOwner', 'http://www.zillow.com/dalton-ga/fsbo/'), ('forSale', 'http://www.zillow.com/dalton-ga/')]))])"
92,49863935,90228.0,103 David Ter,CENTERVILLE,31028.0,"OrderedDict([('@currency', 'USD'), ('#text', '47000')])",3.0,SingleFamily,1048.0,1986.0,67500.0,32.620346999999995,-83.679419,8/27/1993,"123,200",47000.0,"OrderedDict([('@id', '17361'), ('@name', 'Centerville'), ('@type', 'city'), ('zindexValue', '123,200'), ('links', OrderedDict([('overview', 'http://www.zillow.com/local-info/GA-Centerville/r_17361/'), ('forSaleByOwner', 'http://www.zillow.com/centerville-ga/fsbo/'), ('forSale', 'http://www.zillow.com/centerville-ga/')]))])"
93,65455737,140174.0,3884 Meadow Glen Way,FAIRBURN,30213.0,"OrderedDict([('@currency', 'USD'), ('#text', '118800')])",3.0,SingleFamily,1490.0,2002.0,56700.0,33.534492,-84.589072,5/9/2002,"125,600",118800.0,"OrderedDict([('@id', '31501'), ('@name', 'Fairburn'), ('@type', 'city'), ('zindexValue', '125,600'), ('links', OrderedDict([('overview', 'http://www.zillow.com/local-info/GA-Fairburn/r_31501/'), ('forSaleByOwner', 'http://www.zillow.com/fairburn-ga/fsbo/'), ('forSale', 'http://www.zillow.com/fairburn-ga/')]))])"
94,35766661,50530.0,4590 Karla Cir,CONLEY,30288.0,"OrderedDict([('@currency', 'USD'), ('#text', '55000')])",3.0,SingleFamily,1025.0,1965.0,41607.0,33.629442,-84.343192,5/5/1994,,55000.0,"OrderedDict([('@id', '31011'), ('@name', 'Conley'), ('@type', 'city'), ('links', OrderedDict([('overview', 'http://www.zillow.com/local-info/GA-Conley/r_31011/'), ('forSaleByOwner', 'http://www.zillow.com/conley-ga/fsbo/'), ('forSale', 'http://www.zillow.com/conley-ga/')]))])"
95,101233613,197805.0,36 International Village Dr,HELEN,30545.0,"OrderedDict([('@currency', 'USD'), ('#text', '190000')])",4.0,SingleFamily,1648.0,1991.0,155650.0,34.707573,-83.716255,9/23/2008,"151,300",190000.0,"OrderedDict([('@id', '5116'), ('@name', 'Helen'), ('@type', 'city'), ('zindexValue', '151,300'), ('links', OrderedDict([('overview', 'http://www.zillow.com/local-info/GA-Helen/r_5116/'), ('forSaleByOwner', 'http://www.zillow.com/helen-ga/fsbo/'), ('forSale', 'http://www.zillow.com/helen-ga/')]))])"
96,71772606,112791.0,222 Fullwood Springs Rd,CEDARTOWN,30125.0,"OrderedDict([('@currency', 'USD'), ('#text', '150000')])",3.0,SingleFamily,2230.0,1900.0,144411.0,33.916592,-85.30730799999999,4/17/1997,"84,600",150000.0,"OrderedDict([('@id', '17351'), ('@name', 'Cedartown'), ('@type', 'city'), ('zindexValue', '84,600'), ('links', OrderedDict([('overview', 'http://www.zillow.com/local-info/GA-Cedartown/r_17351/'), ('forSaleByOwner', 'http://www.zillow.com/cedartown-ga/fsbo/'), ('forSale', 'http://www.zillow.com/cedartown-ga/')]))])"
97,49888413,,1416 Tipperary Ct,Monroe,30656.0,"OrderedDict([('@currency', 'USD'), ('#text', '139900')])",,SingleFamily,,,23200.0,33.808608,-83.78163,12/25/2014,,139900.0,
98,99923496,428448.0,11 Magee Ave,JEKYLL ISLAND,31527.0,"OrderedDict([('@currency', 'USD'), ('#text', '432500')])",3.0,SingleFamily,2190.0,1972.0,347000.0,31.08291,-81.42029000000001,5/3/2010,,432500.0,
99,99906111,271568.0,110 Regal Rd,BRUNSWICK,31523.0,"OrderedDict([('@currency', 'USD'), ('#text', '280000')])",3.0,SingleFamily,2243.0,2000.0,229400.0,31.131125,-81.573489,7/3/2006,"125,000",280000.0,"OrderedDict([('@id', '51173'), ('@name', 'Brunswick'), ('@type', 'city'), ('zindexValue', '125,000'), ('links', OrderedDict([('overview', 'http://www.zillow.com/local-info/GA-Brunswick/r_51173/'), ('forSaleByOwner', 'http://www.zillow.com/brunswick-ga/fsbo/'), ('forSale', 'http://www.zillow.com/brunswick-ga/')]))])"
100,247498274,208981.0,5361 Cemetery Rd,Grovetown,30813.0,"OrderedDict([('@currency', 'USD'), ('#text', '255000')])",4.0,SingleFamily,2186.0,2016.0,226331.0,33.424048,-82.215859,4/1/2016,"147,400",255000.0,"OrderedDict([('@id', '52353'), ('@name', 'Grovetown'), ('@type', 'city'), ('zindexValue', '147,400'), ('links', OrderedDict([('overview', 'http://www.zillow.com/local-info/GA-Grovetown/r_52353/'), ('forSaleByOwner', 'http://www.zillow.com/grovetown-ga/fsbo/'), ('forSale', 'http://www.zillow.com/grovetown-ga/')]))])"
101,70838405,137015.0,2905 Snapfinger Mnr,DECATUR,30035.0,"OrderedDict([('@currency', 'USD'), ('#text', '127100')])",3.0,SingleFamily,1632.0,2004.0,69800.0,33.705248,-84.192776,8/16/2004,,127100.0,
102,69995483,161439.0,540 Shackelford Rd,GRIFFIN,30224.0,,3.0,SingleFamily,1590.0,1996.0,115139.0,33.160195,-84.296975,,"101,600",,"OrderedDict([('@id', '11738'), ('@name', 'Griffin'), ('@type', 'city'), ('zindexValue', '101,600'), ('links', OrderedDict([('overview', 'http://www.zillow.com/local-info/GA-Griffin/r_11738/'), ('forSaleByOwner', 'http://www.zillow.com/griffin-ga/fsbo/'), ('forSale', 'http://www.zillow.com/griffin-ga/')]))])"
103,14432130,96404.0,3428 Almand Rd SE,ATLANTA,30316.0,"OrderedDict([('@currency', 'USD'), ('#text', '17000')])",5.0,MultiFamily2To4,1699.0,1948.0,24000.0,33.684438,-84.343915,5/24/2013,,17000.0,
104,210171386,,7003 Moseley Dixon Rd,Macon,31220.0,,0.0,SingleFamily,,,18581.0,32.832189,-83.790402,,"70,400",,"OrderedDict([('@id', '32626'), ('@name', 'Macon'), ('@type', 'city'), ('zindexValue', '70,400'), ('links', OrderedDict([('overview', 'http://www.zillow.com/local-info/GA-Macon/r_32626/'), ('forSaleByOwner', 'http://www.zillow.com/macon-ga/fsbo/'), ('forSale', 'http://www.zillow.com/macon-ga/')]))])"
105,117762476,125122.0,41 Chevy Rd,Fleming,31309.0,"OrderedDict([('@currency', 'USD'), ('#text', '22000')])",3.0,Mobile,2240.0,2002.0,65790.0,31.922718,-81.420585,5/8/2002,,22000.0,"OrderedDict([('@id', '18119'), ('@name', 'Fleming'), ('@type', 'city'), ('links', OrderedDict([('overview', 'http://www.zillow.com/local-info/GA-Fleming/r_18119/'), ('forSaleByOwner', 'http://www.zillow.com/fleming-ga/fsbo/'), ('forSale', 'http://www.zillow.com/fleming-ga/')]))])"
106,240259041,22998.0,140 Industrial Blvd,Arabi,31712.0,,3.0,Mobile,924.0,1995.0,13024.0,31.831578999999998,-83.732843,,,,"OrderedDict([('@id', '41885'), ('@name', 'Arabi'), ('@type', 'city'), ('links', OrderedDict([('overview', 'http://www.zillow.com/local-info/GA-Arabi/r_41885/'), ('forSaleByOwner', 'http://www.zillow.com/arabi-ga/fsbo/'), ('forSale', 'http://www.zillow.com/arabi-ga/')]))])"
107,105367357,14122.0,663 Dover Rd,SYLVANIA,30467.0,,,SingleFamily,731.0,1920.0,5500.0,32.577776,-81.714878,,,,
108,35902467,1143733.0,15 Putnam Dr NW,ATLANTA,30342.0,"OrderedDict([('@currency', 'USD'), ('#text', '640000')])",3.0,SingleFamily,3441.0,1949.0,727500.0,33.859652000000004,-84.387929,3/25/2003,"2,103,100",640000.0,"OrderedDict([('@id', '269446'), ('@name', 'Tuxedo Park'), ('@type', 'neighborhood'), ('zindexValue', '2,103,100'), ('links', OrderedDict([('overview', 'http://www.zillow.com/local-info/GA-Atlanta/Tuxedo-Park/r_269446/'), ('forSaleByOwner', 'http://www.zillow.com/tuxedo-park-atlanta-ga/fsbo/'), ('forSale', 'http://www.zillow.com/tuxedo-park-atlanta-ga/')]))])"
109,230944696,76093.0,2770 Yonah Homer Rd,Lula,30511.0,,3.0,SingleFamily,1592.0,1972.0,66548.0,34.382957,-83.548112,,"139,400",,"OrderedDict([('@id', '46340'), ('@name', 'Lula'), ('@type', 'city'), ('zindexValue', '139,400'), ('links', OrderedDict([('overview', 'http://www.zillow.com/local-info/GA-Lula/r_46340/'), ('forSaleByOwner', 'http://www.zillow.com/lula-ga/fsbo/'), ('forSale', 'http://www.zillow.com/lula-ga/')]))])"
110,14990701,,5072 Peach Orchard Rd,HEPHZIBAH,30815.0,,3.0,SingleFamily,1636.0,1987.0,255510.0,33.240648,-82.039953,,,,"OrderedDict([('@id', '276361'), ('@name', 'Hancock Mill'), ('@type', 'neighborhood'), ('links', OrderedDict([('overview', 'http://www.zillow.com/local-info/GA-Augusta/Hancock-Mill/r_276361/'), ('forSaleByOwner', 'http://www.zillow.com/hancock-mill-augusta-ga/fsbo/'), ('forSale', 'http://www.zillow.com/hancock-mill-augusta-ga/')]))])"
111,105212049,205302.0,3916 Fair Haven Rd,EASTMAN,31023.0,"OrderedDict([('@currency', 'USD'), ('#text', '10')])",,SingleFamily,2042.0,1962.0,201260.0,32.048617,-83.214676,10/1/2008,,10.0,"OrderedDict([('@id', '15152'), ('@name', 'Eastman'), ('@type', 'city'), ('links', OrderedDict([('overview', 'http://www.zillow.com/local-info/GA-Eastman/r_15152/'), ('forSaleByOwner', 'http://www.zillow.com/eastman-ga/fsbo/'), ('forSale', 'http://www.zillow.com/eastman-ga/')]))])"
112,89976390,192746.0,336 Highland Ave,CORNELIA,30531.0,"OrderedDict([('@currency', 'USD'), ('#text', '171000')])",4.0,SingleFamily,2368.0,1957.0,168860.0,34.502952,-83.521462,10/31/2016,"121,500",171000.0,"OrderedDict([('@id', '24221'), ('@name', 'Cornelia'), ('@type', 'city'), ('zindexValue', '121,500'), ('links', OrderedDict([('overview', 'http://www.zillow.com/local-info/GA-Cornelia/r_24221/'), ('forSaleByOwner', 'http://www.zillow.com/cornelia-ga/fsbo/'), ('forSale', 'http://www.zillow.com/cornelia-ga/')]))])"
113,99914388,501790.0,49 Ogden St APT A,JEKYLL ISLAND,31527.0,,6.0,Duplex,3228.0,1968.0,379400.0,31.074176,-81.405773,,,,
114,14897797,149551.0,275 Southmoor Cir,STOCKBRIDGE,30281.0,"OrderedDict([('@currency', 'USD'), ('#text', '135000')])",3.0,SingleFamily,1571.0,1984.0,121400.0,33.471738,-84.236891,7/22/2003,"139,300",135000.0,"OrderedDict([('@id', '20665'), ('@name', 'Stockbridge'), ('@type', 'city'), ('zindexValue', '139,300'), ('links', OrderedDict([('overview', 'http://www.zillow.com/local-info/GA-Stockbridge/r_20665/'), ('forSaleByOwner', 'http://www.zillow.com/stockbridge-ga/fsbo/'), ('forSale', 'http://www.zillow.com/stockbridge-ga/')]))])"
115,231087582,2243174.0,76 Guy Hall Ln,Lakemont,30552.0,,4.0,SingleFamily,6461.0,2003.0,655335.0,34.76314,-83.4221,,,,"OrderedDict([('@id', '5515'), ('@name', 'Lakemont'), ('@type', 'city'), ('links', OrderedDict([('overview', 'http://www.zillow.com/local-info/GA-Lakemont/r_5515/'), ('forSaleByOwner', 'http://www.zillow.com/lakemont-ga/fsbo/'), ('forSale', 'http://www.zillow.com/lakemont-ga/')]))])"
116,51105212,244473.0,127 Fitchburg Dr,WOODSTOCK,30189.0,"OrderedDict([('@currency', 'USD'), ('#text', '126000')])",4.0,SingleFamily,2192.0,1984.0,197400.0,34.081988,-84.550452,7/1/1994,"213,400",126000.0,"OrderedDict([('@id', '48573'), ('@name', 'Woodstock'), ('@type', 'city'), ('zindexValue', '213,400'), ('links', OrderedDict([('overview', 'http://www.zillow.com/local-info/GA-Woodstock/r_48573/'), ('forSaleByOwner', 'http://www.zillow.com/woodstock-ga/fsbo/'), ('forSale', 'http://www.zillow.com/woodstock-ga/')]))])"
117,14398891,,4 Seasons Dr,Grantville,30220.0,,,SingleFamily,,,50.0,33.2307,-84.8242,,"113,700",,"OrderedDict([('@id', '45530'), ('@name', 'Grantville'), ('@type', 'city'), ('zindexValue', '113,700'), ('links', OrderedDict([('overview', 'http://www.zillow.com/local-info/GA-Grantville/r_45530/'), ('forSaleByOwner', 'http://www.zillow.com/grantville-ga/fsbo/'), ('forSale', 'http://www.zillow.com/grantville-ga/')]))])"
118,89924787,343639.0,1025 Ponderosa Rd,Demorest,30535.0,,3.0,SingleFamily,1800.0,1997.0,299980.0,34.56425,-83.626478,,"122,200",,"OrderedDict([('@id', '51689'), ('@name', 'Demorest'), ('@type', 'city'), ('zindexValue', '122,200'), ('links', OrderedDict([('overview', 'http://www.zillow.com/local-info/GA-Demorest/r_51689/'), ('forSaleByOwner', 'http://www.zillow.com/demorest-ga/fsbo/'), ('forSale', 'http://www.zillow.com/demorest-ga/')]))])"
119,105175687,92380.0,16295 College Rd,EDISON,39846.0,"OrderedDict([('@currency', 'USD'), ('#text', '65000')])",3.0,SingleFamily,1650.0,1966.0,80582.0,31.540734999999998,-84.71239399999999,1/1/2014,,65000.0,"OrderedDict([('@id', '50447'), ('@name', 'Edison'), ('@type', 'city'), ('links', OrderedDict([('overview', 'http://www.zillow.com/local-info/GA-Edison/r_50447/'), ('forSaleByOwner', 'http://www.zillow.com/edison-ga/fsbo/'), ('forSale', 'http://www.zillow.com/edison-ga/')]))])"
120,14199870,112872.0,315 Osteen St,Savannah,31407.0,"OrderedDict([('@currency', 'USD'), ('#text', '186000')])",3.0,SingleFamily,1811.0,1985.0,109400.0,32.146623,-81.156288,2/20/2015,"131,400",186000.0,"OrderedDict([('@id', '33504'), ('@name', 'Port Wentworth'), ('@type', 'city'), ('zindexValue', '131,400'), ('links', OrderedDict([('overview', 'http://www.zillow.com/local-info/GA-Port-Wentworth/r_33504/'), ('forSaleByOwner', 'http://www.zillow.com/port-wentworth-ga/fsbo/'), ('forSale', 'http://www.zillow.com/port-wentworth-ga/')]))])"
121,14349325,134697.0,3410 Oregon Trl SW,MARIETTA,30060.0,"OrderedDict([('@currency', 'USD'), ('#text', '79900')])",3.0,SingleFamily,1025.0,1968.0,104830.0,33.87023,-84.583874,12/30/1998,"255,900",79900.0,"OrderedDict([('@id', '12562'), ('@name', 'Marietta'), ('@type', 'city'), ('zindexValue', '255,900'), ('links', OrderedDict([('overview', 'http://www.zillow.com/local-info/GA-Marietta/r_12562/'), ('forSaleByOwner', 'http://www.zillow.com/marietta-ga/fsbo/'), ('forSale', 'http://www.zillow.com/marietta-ga/')]))])"
122,244038127,,Bennie St W,Waverly,31565.0,,0.0,VacantResidentialLand,,,62220.0,31.097034999999998,-81.617735,,,,"OrderedDict([('@id', '7795'), ('@name', 'Waverly'), ('@type', 'city'), ('links', OrderedDict([('overview', 'http://www.zillow.com/local-info/GA-Waverly/r_7795/'), ('forSaleByOwner', 'http://www.zillow.com/waverly-ga/fsbo/'), ('forSale', 'http://www.zillow.com/waverly-ga/')]))])"
123,97989465,265330.0,677 Channel Ln,LAWRENCEVILLE,30046.0,"OrderedDict([('@currency', 'USD'), ('#text', '259900')])",4.0,SingleFamily,2290.0,2018.0,36000.0,33.922740000000005,-83.992498,3/6/2018,"187,200",259900.0,"OrderedDict([('@id', '5573'), ('@name', 'Lawrenceville'), ('@type', 'city'), ('zindexValue', '187,200'), ('links', OrderedDict([('overview', 'http://www.zillow.com/local-info/GA-Lawrenceville/r_5573/'), ('forSaleByOwner', 'http://www.zillow.com/lawrenceville-ga/fsbo/'), ('forSale', 'http://www.zillow.com/lawrenceville-ga/')]))])"
124,124286612,32141.0,1684 Old Traders Hill Rd,FOLKSTON,31537.0,"OrderedDict([('@currency', 'USD'), ('#text', '24264')])",,Mobile,980.0,1986.0,33700.0,30.90977,-82.13337,7/8/2011,,24264.0,
125,14476137,416392.0,873 Stratford Rd,AVONDALE ESTATES,30002.0,"OrderedDict([('@currency', 'USD'), ('#text', '415000')])",3.0,SingleFamily,1790.0,1949.0,248600.0,33.76873,-84.262352,6/11/2018,"340,700",415000.0,"OrderedDict([('@id', '14956'), ('@name', 'Avondale Estates'), ('@type', 'city'), ('zindexValue', '340,700'), ('links', OrderedDict([('overview', 'http://www.zillow.com/local-info/GA-Avondale-Estates/r_14956/'), ('forSaleByOwner', 'http://www.zillow.com/avondale-estates-ga/fsbo/'), ('forSale', 'http://www.zillow.com/avondale-estates-ga/')]))])"
126,35817997,545940.0,310 Westbury Ln,ALPHARETTA,30005.0,"OrderedDict([('@currency', 'USD'), ('#text', '300000')])",6.0,SingleFamily,4555.0,1999.0,315400.0,34.059821,-84.198551,7/9/2001,"391,800",300000.0,"OrderedDict([('@id', '397383'), ('@name', 'Johns Creek'), ('@type', 'city'), ('zindexValue', '391,800'), ('links', OrderedDict([('overview', 'http://www.zillow.com/local-info/GA-Johns-Creek/r_397383/'), ('forSaleByOwner', 'http://www.zillow.com/johns-creek-ga/fsbo/'), ('forSale', 'http://www.zillow.com/johns-creek-ga/')]))])"
127,69378105,136398.0,112 Revere Turn,FAIRBURN,30213.0,,3.0,SingleFamily,1453.0,2005.0,68800.0,33.531993,-84.570528,,"125,600",,"OrderedDict([('@id', '31501'), ('@name', 'Fairburn'), ('@type', 'city'), ('zindexValue', '125,600'), ('links', OrderedDict([('overview', 'http://www.zillow.com/local-info/GA-Fairburn/r_31501/'), ('forSaleByOwner', 'http://www.zillow.com/fairburn-ga/fsbo/'), ('forSale', 'http://www.zillow.com/fairburn-ga/')]))])"
128,2087667720,,2055 Barrett Lakes Blvd NW # 13-1313,Kennesaw,30144.0,,1.0,MultiFamily5Plus,697.0,2013.0,,34.00343,-84.575316,,"210,300",,"OrderedDict([('@id', '32287'), ('@name', 'Kennesaw'), ('@type', 'city'), ('zindexValue', '210,300'), ('links', OrderedDict([('overview', 'http://www.zillow.com/local-info/GA-Kennesaw/r_32287/'), ('forSaleByOwner', 'http://www.zillow.com/kennesaw-ga/fsbo/'), ('forSale', 'http://www.zillow.com/kennesaw-ga/')]))])"
129,14930110,109370.0,160 Ethridge Pl,GRAY,31032.0,"OrderedDict([('@currency', 'USD'), ('#text', '72000')])",4.0,SingleFamily,1368.0,2009.0,97679.0,32.937813,-83.589671,11/27/2013,"129,400",72000.0,"OrderedDict([('@id', '45539'), ('@name', 'Gray'), ('@type', 'city'), ('zindexValue', '129,400'), ('links', OrderedDict([('overview', 'http://www.zillow.com/local-info/GA-Gray/r_45539/'), ('forSaleByOwner', 'http://www.zillow.com/gray-ga/fsbo/'), ('forSale', 'http://www.zillow.com/gray-ga/')]))])"
130,35947044,490841.0,7620 Happy Hollow Rd,SANDY SPRINGS,30350.0,"OrderedDict([('@currency', 'USD'), ('#text', '335000')])",4.0,SingleFamily,3084.0,1987.0,365100.0,33.962482,-84.278989,3/19/2002,"454,500",335000.0,"OrderedDict([('@id', '13709'), ('@name', 'Sandy Springs'), ('@type', 'city'), ('zindexValue', '454,500'), ('links', OrderedDict([('overview', 'http://www.zillow.com/local-info/GA-Sandy-Springs/r_13709/'), ('forSaleByOwner', 'http://www.zillow.com/sandy-springs-ga/fsbo/'), ('forSale', 'http://www.zillow.com/sandy-springs-ga/')]))])"
131,14416203,186123.0,179 Glazier Rd,SENOIA,30276.0,,,SingleFamily,1873.0,1987.0,150609.0,33.226754,-84.591581,,"193,800",,"OrderedDict([('@id', '33941'), ('@name', 'Senoia'), ('@type', 'city'), ('zindexValue', '193,800'), ('links', OrderedDict([('overview', 'http://www.zillow.com/local-info/GA-Senoia/r_33941/'), ('forSaleByOwner', 'http://www.zillow.com/senoia-ga/fsbo/'), ('forSale', 'http://www.zillow.com/senoia-ga/')]))])"
132,193652458,16797.0,63 E 2nd Ave,Fargo,31631.0,"OrderedDict([('@currency', 'USD'), ('#text', '12000')])",0.0,SingleFamily,1740.0,1940.0,41800.0,30.687639,-82.560626,10/22/2010,,12000.0,"OrderedDict([('@id', '4687'), ('@name', 'Fargo'), ('@type', 'city'), ('links', OrderedDict([('overview', 'http://www.zillow.com/local-info/GA-Fargo/r_4687/'), ('forSaleByOwner', 'http://www.zillow.com/fargo-ga/fsbo/'), ('forSale', 'http://www.zillow.com/fargo-ga/')]))])"
133,246310161,43471.0,204 Cooper Rd,Climax,39834.0,,0.0,Mobile,1152.0,2016.0,17410.0,30.982652,-84.40837900000001,,,,"OrderedDict([('@id', '4134'), ('@name', 'Climax'), ('@type', 'city'), ('links', OrderedDict([('overview', 'http://www.zillow.com/local-info/GA-Climax/r_4134/'), ('forSaleByOwner', 'http://www.zillow.com/climax-ga/fsbo/'), ('forSale', 'http://www.zillow.com/climax-ga/')]))])"
134,217695491,,5439 Pointer Dr,Valdosta,31606.0,,0.0,SingleFamily,,,8500.0,30.779829,-83.152744,,"117,800",,"OrderedDict([('@id', '54902'), ('@name', 'Valdosta'), ('@type', 'city'), ('zindexValue', '117,800'), ('links', OrderedDict([('overview', 'http://www.zillow.com/local-info/GA-Valdosta/r_54902/'), ('forSaleByOwner', 'http://www.zillow.com/valdosta-ga/fsbo/'), ('forSale', 'http://www.zillow.com/valdosta-ga/')]))])"
135,14676956,484470.0,240 Willow Brook Dr,ROSWELL,30076.0,"OrderedDict([('@currency', 'USD'), ('#text', '239900')])",4.0,SingleFamily,3268.0,1988.0,353300.0,33.985164000000005,-84.279034,1/10/1990,"360,900",239900.0,"OrderedDict([('@id', '54219'), ('@name', 'Roswell'), ('@type', 'city'), ('zindexValue', '360,900'), ('links', OrderedDict([('overview', 'http://www.zillow.com/local-info/GA-Roswell/r_54219/'), ('forSaleByOwner', 'http://www.zillow.com/roswell-ga/fsbo/'), ('forSale', 'http://www.zillow.com/roswell-ga/')]))])"
136,76316522,20938.0,984 Bethel Freewill Rd,BAXLEY,31513.0,,,SingleFamily,988.0,1950.0,19898.0,31.710117999999998,-82.480728,,,,
137,89946090,264776.0,109 Whitetail Ln,DEMOREST,30535.0,"OrderedDict([('@currency', 'USD'), ('#text', '220750')])",4.0,SingleFamily,2102.0,1996.0,206740.0,34.547371999999996,-83.564531,4/23/2015,"121,500",220750.0,"OrderedDict([('@id', '24221'), ('@name', 'Cornelia'), ('@type', 'city'), ('zindexValue', '121,500'), ('links', OrderedDict([('overview', 'http://www.zillow.com/local-info/GA-Cornelia/r_24221/'), ('forSaleByOwner', 'http://www.zillow.com/cornelia-ga/fsbo/'), ('forSale', 'http://www.zillow.com/cornelia-ga/')]))])"
138,231084202,215227.0,514 Piedmont Ln,Clayton,30525.0,,3.0,SingleFamily,2167.0,1993.0,181228.0,34.844817,-83.335397,,,,"OrderedDict([('@id', '55543'), ('@name', 'Clayton'), ('@type', 'city'), ('links', OrderedDict([('overview', 'http://www.zillow.com/local-info/GA-Clayton/r_55543/'), ('forSaleByOwner', 'http://www.zillow.com/clayton-ga/fsbo/'), ('forSale', 'http://www.zillow.com/clayton-ga/')]))])"
139,71754607,312280.0,823 Commonwealth Ave SE,ATLANTA,30312.0,"OrderedDict([('@currency', 'USD'), ('#text', '206900')])",4.0,SingleFamily,1510.0,1994.0,130200.0,33.729451,-84.362909,6/30/2005,"374,700",206900.0,"OrderedDict([('@id', '269330'), ('@name', 'Grant Park'), ('@type', 'neighborhood'), ('zindexValue', '374,700'), ('links', OrderedDict([('overview', 'http://www.zillow.com/local-info/GA-Atlanta/Grant-Park/r_269330/'), ('forSaleByOwner', 'http://www.zillow.com/grant-park-atlanta-ga/fsbo/'), ('forSale', 'http://www.zillow.com/grant-park-atlanta-ga/')]))])"
140,49846027,212441.0,280 Toomer Rd,PERRY,31069.0,"OrderedDict([('@currency', 'USD'), ('#text', '139500')])",3.0,SingleFamily,2564.0,1995.0,207600.0,32.411084,-83.813354,12/21/2015,"109,500",139500.0,"OrderedDict([('@id', '13257'), ('@name', 'Perry'), ('@type', 'city'), ('zindexValue', '109,500'), ('links', OrderedDict([('overview', 'http://www.zillow.com/local-info/GA-Perry/r_13257/'), ('forSaleByOwner', 'http://www.zillow.com/perry-ga/fsbo/'), ('forSale', 'http://www.zillow.com/perry-ga/')]))])"
141,69959353,85743.0,360 Hopewell Rd,ROOPVILLE,30170.0,"OrderedDict([('@currency', 'USD'), ('#text', '70000')])",3.0,SingleFamily,1296.0,1940.0,61111.0,33.426876,-85.22563000000001,5/19/2005,,70000.0,
142,76460130,104825.0,5134 Bowersville Hwy,BOWERSVILLE,30516.0,"OrderedDict([('@currency', 'USD'), ('#text', '63000')])",4.0,SingleFamily,2043.0,1957.0,99144.0,34.360881,-83.02391899999999,5/1/1996,,63000.0,"OrderedDict([('@id', '17131'), ('@name', 'Bowersville'), ('@type', 'city'), ('links', OrderedDict([('overview', 'http://www.zillow.com/local-info/GA-Bowersville/r_17131/'), ('forSaleByOwner', 'http://www.zillow.com/bowersville-ga/fsbo/'), ('forSale', 'http://www.zillow.com/bowersville-ga/')]))])"
143,69868321,,535 River Cove Rd,SOCIAL CIRCLE,30025.0,"OrderedDict([('@currency', 'USD'), ('#text', '375000')])",3.0,SingleFamily,2857.0,1980.0,351300.0,33.621717,-83.768013,11/4/2015,"160,000",375000.0,"OrderedDict([('@id', '43250'), ('@name', 'Social Circle'), ('@type', 'city'), ('zindexValue', '160,000'), ('links', OrderedDict([('overview', 'http://www.zillow.com/local-info/GA-Social-Circle/r_43250/'), ('forSaleByOwner', 'http://www.zillow.com/social-circle-ga/fsbo/'), ('forSale', 'http://www.zillow.com/social-circle-ga/')]))])"
144,70009221,104517.0,60 Smith Ln,Talking Rock,30175.0,,,SingleFamily,880.0,1970.0,89358.0,34.468952,-84.602936,,,,"OrderedDict([('@id', '9756'), ('@name', 'Talking Rock'), ('@type', 'city'), ('links', OrderedDict([('overview', 'http://www.zillow.com/local-info/GA-Talking-Rock/r_9756/'), ('forSaleByOwner', 'http://www.zillow.com/talking-rock-ga/fsbo/'), ('forSale', 'http://www.zillow.com/talking-rock-ga/')]))])"
145,210189210,32457.0,4235 Mark Pl,Macon,31204.0,"OrderedDict([('@currency', 'USD'), ('#text', '50000')])",3.0,SingleFamily,1106.0,1972.0,23546.0,32.820572,-83.702875,6/19/2015,"70,400",50000.0,"OrderedDict([('@id', '32626'), ('@name', 'Macon'), ('@type', 'city'), ('zindexValue', '70,400'), ('links', OrderedDict([('overview', 'http://www.zillow.com/local-info/GA-Macon/r_32626/'), ('forSaleByOwner', 'http://www.zillow.com/macon-ga/fsbo/'), ('forSale', 'http://www.zillow.com/macon-ga/')]))])"
146,88812576,,2706 Jones Holly Rd,Good Hope,30641.0,,,VacantResidentialLand,,,20300.0,33.80161,-83.526838,,,,
147,101311162,145656.0,653 W Freeman St,MAYSVILLE,30558.0,"OrderedDict([('@currency', 'USD'), ('#text', '30000')])",4.0,Mobile,2432.0,1999.0,73269.0,34.248278000000006,-83.57103599999999,5/30/2000,,30000.0,"OrderedDict([('@id', '16605'), ('@name', 'Maysville'), ('@type', 'city'), ('links', OrderedDict([('overview', 'http://www.zillow.com/local-info/GA-Maysville/r_16605/'), ('forSaleByOwner', 'http://www.zillow.com/maysville-ga/fsbo/'), ('forSale', 'http://www.zillow.com/maysville-ga/')]))])"
148,54375834,88917.0,1785 E Broad St,ATHENS,30601.0,"OrderedDict([('@currency', 'USD'), ('#text', '30000')])",3.0,SingleFamily,840.0,1973.0,46104.0,33.950317,-83.352769,10/1/2014,"149,300",30000.0,"OrderedDict([('@id', '23534'), ('@name', 'Athens'), ('@type', 'city'), ('zindexValue', '149,300'), ('links', OrderedDict([('overview', 'http://www.zillow.com/local-info/GA-Athens/r_23534/'), ('forSaleByOwner', 'http://www.zillow.com/athens-ga/fsbo/'), ('forSale', 'http://www.zillow.com/athens-ga/')]))])"
149,69838793,17569.0,275 Morris Dr,WAYNESBORO,30830.0,"OrderedDict([('@currency', 'USD'), ('#text', '35000')])",3.0,Mobile,1344.0,1981.0,53362.0,33.042064,-81.94173599999999,1/23/1998,,35000.0,
150,243305140,33554.0,2765 Us Highway 280 E,De Soto,31743.0,,2.0,SingleFamily,1512.0,1930.0,41900.0,31.955862,-84.057351,,,,"OrderedDict([('@id', '24332'), ('@name', 'De Soto'), ('@type', 'city'), ('links', OrderedDict([('overview', 'http://www.zillow.com/local-info/GA-De-Soto/r_24332/'), ('forSaleByOwner', 'http://www.zillow.com/de-soto-ga/fsbo/'), ('forSale', 'http://www.zillow.com/de-soto-ga/')]))])"
151,113208429,294571.0,535 Bond St,THOMASVILLE,31757.0,,,SingleFamily,2622.0,2002.0,302836.0,30.839558,-83.925101,,"116,400",,"OrderedDict([('@id', '34268'), ('@name', 'Thomasville'), ('@type', 'city'), ('zindexValue', '116,400'), ('links', OrderedDict([('overview', 'http://www.zillow.com/local-info/GA-Thomasville/r_34268/'), ('forSaleByOwner', 'http://www.zillow.com/thomasville-ga/fsbo/'), ('forSale', 'http://www.zillow.com/thomasville-ga/')]))])"
152,230943342,35758.0,1557 Grant Mill Rd,Alto,30510.0,"OrderedDict([('@currency', 'USD'), ('#text', '22000')])",3.0,Mobile,1440.0,1984.0,68240.0,34.4263,-83.586936,5/22/2013,"112,200",22000.0,"OrderedDict([('@id', '10103'), ('@name', 'Alto'), ('@type', 'city'), ('zindexValue', '112,200'), ('links', OrderedDict([('overview', 'http://www.zillow.com/local-info/GA-Alto/r_10103/'), ('forSaleByOwner', 'http://www.zillow.com/alto-ga/fsbo/'), ('forSale', 'http://www.zillow.com/alto-ga/')]))])"
153,105387553,47675.0,421 Tommy Hooks Rd,AMERICUS,31709.0,"OrderedDict([('@currency', 'USD'), ('#text', '53500')])",3.0,Mobile,1624.0,1999.0,44360.0,32.037997999999995,-84.195098,10/25/2007,,53500.0,"OrderedDict([('@id', '50720'), ('@name', 'Americus'), ('@type', 'city'), ('links', OrderedDict([('overview', 'http://www.zillow.com/local-info/GA-Americus/r_50720/'), ('forSaleByOwner', 'http://www.zillow.com/americus-ga/fsbo/'), ('forSale', 'http://www.zillow.com/americus-ga/')]))])"
154,227627829,144359.0,1494 Bryant Loop,Ranger,30734.0,"OrderedDict([('@currency', 'USD'), ('#text', '82000')])",0.0,SingleFamily,1691.0,1999.0,92047.0,34.46482,-84.61689399999999,3/28/2006,"120,000",82000.0,"OrderedDict([('@id', '35602'), ('@name', 'Fairmount'), ('@type', 'city'), ('zindexValue', '120,000'), ('links', OrderedDict([('overview', 'http://www.zillow.com/local-info/GA-Fairmount/r_35602/'), ('forSaleByOwner', 'http://www.zillow.com/fairmount-ga/fsbo/'), ('forSale', 'http://www.zillow.com/fairmount-ga/')]))])"
155,70031721,196360.0,835 Hightower Rd,HOGANSVILLE,30230.0,"OrderedDict([('@currency', 'USD'), ('#text', '116500')])",3.0,SingleFamily,2400.0,1998.0,159010.0,33.14062,-84.948222,10/1/2002,,116500.0,
156,105444635,16502.0,133 Brown St,PINEVIEW,31071.0,,,SingleFamily,876.0,1952.0,4338.0,32.113715,-83.504784,,,,"OrderedDict([('@id', '56379'), ('@name', 'Pineview'), ('@type', 'city'), ('links', OrderedDict([('overview', 'http://www.zillow.com/local-info/GA-Pineview/r_56379/'), ('forSaleByOwner', 'http://www.zillow.com/pineview-ga/fsbo/'), ('forSale', 'http://www.zillow.com/pineview-ga/')]))])"
157,105271777,68551.0,313 Pine Hill Lakes Dr,Cairo,39828.0,"OrderedDict([('@currency', 'USD'), ('#text', '13000')])",,Mobile,1232.0,1999.0,24898.0,30.706983,-84.34326800000001,3/8/1999,,13000.0,"OrderedDict([('@id', '51223'), ('@name', 'Cairo'), ('@type', 'city'), ('links', OrderedDict([('overview', 'http://www.zillow.com/local-info/GA-Cairo/r_51223/'), ('forSaleByOwner', 'http://www.zillow.com/cairo-ga/fsbo/'), ('forSale', 'http://www.zillow.com/cairo-ga/')]))])"
158,230912454,,1011 Cawthorne Ln,Greensboro,30642.0,"OrderedDict([('@currency', 'USD'), ('#text', '171000')])",,VacantResidentialLand,,,101250.0,33.421277,-83.227166,5/25/2006,,171000.0,"OrderedDict([('@id', '4985'), ('@name', 'Greensboro'), ('@type', 'city'), ('links', OrderedDict([('overview', 'http://www.zillow.com/local-info/GA-Greensboro/r_4985/'), ('forSaleByOwner', 'http://www.zillow.com/greensboro-ga/fsbo/'), ('forSale', 'http://www.zillow.com/greensboro-ga/')]))])"
159,54064450,104839.0,39 Pinewood Dr,ROCK SPRING,30739.0,"OrderedDict([('@currency', 'USD'), ('#text', '92900')])",,SingleFamily,1112.0,2002.0,108652.0,34.779709000000004,-85.209188,10/15/2015,"134,700",92900.0,"OrderedDict([('@id', '13555'), ('@name', 'Rock Spring'), ('@type', 'city'), ('zindexValue', '134,700'), ('links', OrderedDict([('overview', 'http://www.zillow.com/local-info/GA-Rock-Spring/r_13555/'), ('forSaleByOwner', 'http://www.zillow.com/rock-spring-ga/fsbo/'), ('forSale', 'http://www.zillow.com/rock-spring-ga/')]))])"
160,105361098,27520.0,179 South St,CUTHBERT,39840.0,"OrderedDict([('@currency', 'USD'), ('#text', '10')])",,SingleFamily,1248.0,1974.0,35281.0,31.762527000000002,-84.79110899999999,1/29/2007,,10.0,"OrderedDict([('@id', '38114'), ('@name', 'Cuthbert'), ('@type', 'city'), ('links', OrderedDict([('overview', 'http://www.zillow.com/local-info/GA-Cuthbert/r_38114/'), ('forSaleByOwner', 'http://www.zillow.com/cuthbert-ga/fsbo/'), ('forSale', 'http://www.zillow.com/cuthbert-ga/')]))])"
161,14163352,52300.0,629 W 36th St,SAVANNAH,31415.0,"OrderedDict([('@currency', 'USD'), ('#text', '16000')])",3.0,SingleFamily,1227.0,1980.0,36500.0,32.05973,-81.107334,1/1/1980,,16000.0,"OrderedDict([('@id', '763615'), ('@name', 'Cuyler/Brownville'), ('@type', 'neighborhood'), ('links', OrderedDict([('overview', 'http://www.zillow.com/local-info/GA-Savannah/Cuyler_Brownville/r_763615/'), ('forSaleByOwner', 'http://www.zillow.com/cuyler-brownville-savannah-ga/fsbo/'), ('forSale', 'http://www.zillow.com/cuyler-brownville-savannah-ga/')]))])"
162,231083655,140516.0,121 Broadmoor Ln # D,Sky Valley,30537.0,"OrderedDict([('@currency', 'USD'), ('#text', '130000')])",2.0,Condominium,1320.0,1980.0,107102.0,34.984782,-83.31461,7/14/2016,,130000.0,
163,49902302,87095.0,200 Tanglewood Dr,MONROE,30656.0,"OrderedDict([('@currency', 'USD'), ('#text', '51000')])",,Duplex,1972.0,1983.0,45900.0,33.816857,-83.725489,5/16/2018,"106,500",51000.0,"OrderedDict([('@id', '12798'), ('@name', 'Monroe'), ('@type', 'city'), ('zindexValue', '106,500'), ('links', OrderedDict([('overview', 'http://www.zillow.com/local-info/GA-Monroe/r_12798/'), ('forSaleByOwner', 'http://www.zillow.com/monroe-ga/fsbo/'), ('forSale', 'http://www.zillow.com/monroe-ga/')]))])"
164,89927379,67302.0,195 Weeping Willow Dr,CLARKESVILLE,30523.0,"OrderedDict([('@currency', 'USD'), ('#text', '54500')])",2.0,SingleFamily,1118.0,1960.0,52090.0,34.594605,-83.528266,4/7/2015,"164,900",54500.0,"OrderedDict([('@id', '8235'), ('@name', 'Clarkesville'), ('@type', 'city'), ('zindexValue', '164,900'), ('links', OrderedDict([('overview', 'http://www.zillow.com/local-info/GA-Clarkesville/r_8235/'), ('forSaleByOwner', 'http://www.zillow.com/clarkesville-ga/fsbo/'), ('forSale', 'http://www.zillow.com/clarkesville-ga/')]))])"
165,246038155,164442.0,301 Loneoak Trl,Kathleen,31047.0,,3.0,SingleFamily,1620.0,2017.0,138300.0,32.5295,-83.6919,,"171,400",,"OrderedDict([('@id', '25355'), ('@name', 'Kathleen'), ('@type', 'city'), ('zindexValue', '171,400'), ('links', OrderedDict([('overview', 'http://www.zillow.com/local-info/GA-Kathleen/r_25355/'), ('forSaleByOwner', 'http://www.zillow.com/kathleen-ga/fsbo/'), ('forSale', 'http://www.zillow.com/kathleen-ga/')]))])"
166,234813566,,306 Martin Luther King Ave,Ideal,31041.0,,0.0,SingleFamily,,,927.0,32.37899,-84.195573,,,,"OrderedDict([('@id', '5258'), ('@name', 'Ideal'), ('@type', 'city'), ('links', OrderedDict([('overview', 'http://www.zillow.com/local-info/GA-Ideal/r_5258/'), ('forSaleByOwner', 'http://www.zillow.com/ideal-ga/fsbo/'), ('forSale', 'http://www.zillow.com/ideal-ga/')]))])"
167,76440699,249138.0,9 Park St,CAVE SPRING,30124.0,,,SingleFamily,3254.0,1892.0,166813.0,34.102218,-85.33969499999999,,"125,000",,"OrderedDict([('@id', '48679'), ('@name', 'Cave Spring'), ('@type', 'city'), ('zindexValue', '125,000'), ('links', OrderedDict([('overview', 'http://www.zillow.com/local-info/GA-Cave-Spring/r_48679/'), ('forSaleByOwner', 'http://www.zillow.com/cave-spring-ga/fsbo/'), ('forSale', 'http://www.zillow.com/cave-spring-ga/')]))])"
168,76459247,423591.0,1020 Tal Lewis Rd,WHITE PLAINS,30678.0,,,SingleFamily,2560.0,1986.0,342330.0,33.419351,-83.175285,,,,"OrderedDict([('@id', '22574'), ('@name', 'White Plains'), ('@type', 'city'), ('links', OrderedDict([('overview', 'http://www.zillow.com/local-info/GA-White-Plains/r_22574/'), ('forSaleByOwner', 'http://www.zillow.com/white-plains-ga/fsbo/'), ('forSale', 'http://www.zillow.com/white-plains-ga/')]))])"
169,232823428,82755.0,140 Howell St,Leslie,31764.0,,3.0,SingleFamily,1206.0,1970.0,71310.0,31.952202000000003,-84.090036,,,,"OrderedDict([('@id', '39411'), ('@name', 'Leslie'), ('@type', 'city'), ('links', OrderedDict([('overview', 'http://www.zillow.com/local-info/GA-Leslie/r_39411/'), ('forSaleByOwner', 'http://www.zillow.com/leslie-ga/fsbo/'), ('forSale', 'http://www.zillow.com/leslie-ga/')]))])"
170,14676957,518748.0,230 Willow Brook Dr,ROSWELL,30076.0,"OrderedDict([('@currency', 'USD'), ('#text', '450000')])",4.0,SingleFamily,3536.0,1990.0,376600.0,33.985365,-84.279273,1/3/2013,"360,900",450000.0,"OrderedDict([('@id', '54219'), ('@name', 'Roswell'), ('@type', 'city'), ('zindexValue', '360,900'), ('links', OrderedDict([('overview', 'http://www.zillow.com/local-info/GA-Roswell/r_54219/'), ('forSaleByOwner', 'http://www.zillow.com/roswell-ga/fsbo/'), ('forSale', 'http://www.zillow.com/roswell-ga/')]))])"
171,71125755,164752.0,1750 Hidden Shoals Dr SE,CONYERS,30013.0,,4.0,SingleFamily,1845.0,1993.0,101500.0,33.574917,-83.990658,,"134,200",,"OrderedDict([('@id', '51534'), ('@name', 'Conyers'), ('@type', 'city'), ('zindexValue', '134,200'), ('links', OrderedDict([('overview', 'http://www.zillow.com/local-info/GA-Conyers/r_51534/'), ('forSaleByOwner', 'http://www.zillow.com/conyers-ga/fsbo/'), ('forSale', 'http://www.zillow.com/conyers-ga/')]))])"
172,35869530,370158.0,999 Edie Ave SE,ATLANTA,30312.0,"OrderedDict([('@currency', 'USD'), ('#text', '99400')])",2.0,SingleFamily,750.0,1950.0,99400.0,33.727245,-84.36359399999999,2/5/2015,,99400.0,"OrderedDict([('@id', '269273'), ('@name', 'Boulevard Heights'), ('@type', 'neighborhood'), ('links', OrderedDict([('overview', 'http://www.zillow.com/local-info/GA-Atlanta/Boulevard-Heights/r_269273/'), ('forSaleByOwner', 'http://www.zillow.com/boulevard-heights-atlanta-ga/fsbo/'), ('forSale', 'http://www.zillow.com/boulevard-heights-atlanta-ga/')]))])"
173,194096257,,82 Us Hwy W,Morris,39867.0,"OrderedDict([('@currency', 'USD'), ('#text', '15000')])",0.0,SingleFamily,,,13570.0,31.8107,-84.9556,12/4/2015,,15000.0,"OrderedDict([('@id', '25986'), ('@name', 'Morris'), ('@type', 'city'), ('links', OrderedDict([('overview', 'http://www.zillow.com/local-info/GA-Morris/r_25986/'), ('forSaleByOwner', 'http://www.zillow.com/morris-ga/fsbo/'), ('forSale', 'http://www.zillow.com/morris-ga/')]))])"
174,194110510,60684.0,1549 Bell Ave,Soperton,30457.0,"OrderedDict([('@currency', 'USD'), ('#text', '35000')])",0.0,SingleFamily,1148.0,1955.0,40400.0,32.366409999999995,-82.583895,5/17/2007,,35000.0,"OrderedDict([('@id', '54459'), ('@name', 'Soperton'), ('@type', 'city'), ('links', OrderedDict([('overview', 'http://www.zillow.com/local-info/GA-Soperton/r_54459/'), ('forSaleByOwner', 'http://www.zillow.com/soperton-ga/fsbo/'), ('forSale', 'http://www.zillow.com/soperton-ga/')]))])"
175,83350376,302573.0,5899 Heritage Rdg,FLOWERY BRANCH,30542.0,"OrderedDict([('@currency', 'USD'), ('#text', '269400')])",4.0,SingleFamily,2964.0,2015.0,250100.0,34.135413,-83.8655,11/3/2015,"188,700",269400.0,"OrderedDict([('@id', '8713'), ('@name', 'Flowery Branch'), ('@type', 'city'), ('zindexValue', '188,700'), ('links', OrderedDict([('overview', 'http://www.zillow.com/local-info/GA-Flowery-Branch/r_8713/'), ('forSaleByOwner', 'http://www.zillow.com/flowery-branch-ga/fsbo/'), ('forSale', 'http://www.zillow.com/flowery-branch-ga/')]))])"
176,104241199,,178 Meadow Oak Dr,Rock Spring,30739.0,"OrderedDict([('@currency', 'USD'), ('#text', '123075')])",,SingleFamily,,,25000.0,34.762314,-85.196077,8/15/2017,"134,700",123075.0,"OrderedDict([('@id', '13555'), ('@name', 'Rock Spring'), ('@type', 'city'), ('zindexValue', '134,700'), ('links', OrderedDict([('overview', 'http://www.zillow.com/local-info/GA-Rock-Spring/r_13555/'), ('forSaleByOwner', 'http://www.zillow.com/rock-spring-ga/fsbo/'), ('forSale', 'http://www.zillow.com/rock-spring-ga/')]))])"
177,120944359,374774.0,658 Running Bear Rd,DRY BRANCH,31020.0,,,SingleFamily,2387.0,2008.0,248582.0,32.516213,-83.46269699999999,,,,"OrderedDict([('@id', '28806'), ('@name', 'Jeffersonville'), ('@type', 'city'), ('links', OrderedDict([('overview', 'http://www.zillow.com/local-info/GA-Jeffersonville/r_28806/'), ('forSaleByOwner', 'http://www.zillow.com/jeffersonville-ga/fsbo/'), ('forSale', 'http://www.zillow.com/jeffersonville-ga/')]))])"
178,14150794,71983.0,6 Widgeon Ct,BLOOMINGDALE,31302.0,,3.0,Mobile,1568.0,1990.0,48000.0,32.067109,-81.361114,,"149,000",,"OrderedDict([('@id', '23737'), ('@name', 'Bloomingdale'), ('@type', 'city'), ('zindexValue', '149,000'), ('links', OrderedDict([('overview', 'http://www.zillow.com/local-info/GA-Bloomingdale/r_23737/'), ('forSaleByOwner', 'http://www.zillow.com/bloomingdale-ga/fsbo/'), ('forSale', 'http://www.zillow.com/bloomingdale-ga/')]))])"
179,14196169,101993.0,1744 Dean Forest Rd,Savannah,31408.0,,3.0,SingleFamily,1268.0,1957.0,55000.0,32.092071999999995,-81.199614,,"179,400",,"OrderedDict([('@id', '13359'), ('@name', 'Pooler'), ('@type', 'city'), ('zindexValue', '179,400'), ('links', OrderedDict([('overview', 'http://www.zillow.com/local-info/GA-Pooler/r_13359/'), ('forSaleByOwner', 'http://www.zillow.com/pooler-ga/fsbo/'), ('forSale', 'http://www.zillow.com/pooler-ga/')]))])"
180,62037115,418679.0,4106 Creekview Ridge Dr,BUFORD,30518.0,"OrderedDict([('@currency', 'USD'), ('#text', '334800')])",7.0,SingleFamily,5000.0,2003.0,373800.0,34.079389,-84.024625,7/25/2003,"196,700",334800.0,"OrderedDict([('@id', '54600'), ('@name', 'Sugar Hill'), ('@type', 'city'), ('zindexValue', '196,700'), ('links', OrderedDict([('overview', 'http://www.zillow.com/local-info/GA-Sugar-Hill/r_54600/'), ('forSaleByOwner', 'http://www.zillow.com/sugar-hill-ga/fsbo/'), ('forSale', 'http://www.zillow.com/sugar-hill-ga/')]))])"
181,14525195,36207.0,6702 Baynes Hill Cir,CLARKSTON,30021.0,"OrderedDict([('@currency', 'USD'), ('#text', '26000')])",3.0,Condominium,1440.0,1973.0,8100.0,33.799421,-84.228241,7/6/2005,"141,200",26000.0,"OrderedDict([('@id', '10840'), ('@name', 'Clarkston'), ('@type', 'city'), ('zindexValue', '141,200'), ('links', OrderedDict([('overview', 'http://www.zillow.com/local-info/GA-Clarkston/r_10840/'), ('forSaleByOwner', 'http://www.zillow.com/clarkston-ga/fsbo/'), ('forSale', 'http://www.zillow.com/clarkston-ga/')]))])"
182,110837987,90083.0,2135 Adkison Rd,REBECCA,31783.0,,,SingleFamily,1400.0,1972.0,69166.0,31.741801000000002,-83.474818,,,,"OrderedDict([('@id', '28956'), ('@name', 'Rebecca'), ('@type', 'city'), ('links', OrderedDict([('overview', 'http://www.zillow.com/local-info/GA-Rebecca/r_28956/'), ('forSaleByOwner', 'http://www.zillow.com/rebecca-ga/fsbo/'), ('forSale', 'http://www.zillow.com/rebecca-ga/')]))])"
183,76620215,71276.0,1064 Oochee Creek Rd,TOOMSBORO,31090.0,"OrderedDict([('@currency', 'USD'), ('#text', '69670')])",3.0,SingleFamily,1352.0,1999.0,71038.0,32.786403,-83.005835,2/25/2000,,69670.0,"OrderedDict([('@id', '9423'), ('@name', 'Toomsboro'), ('@type', 'city'), ('links', OrderedDict([('overview', 'http://www.zillow.com/local-info/GA-Toomsboro/r_9423/'), ('forSaleByOwner', 'http://www.zillow.com/toomsboro-ga/fsbo/'), ('forSale', 'http://www.zillow.com/toomsboro-ga/')]))])"
184,51087821,184759.0,429 Dock Lathem Trl,BALL GROUND,30107.0,"OrderedDict([('@currency', 'USD'), ('#text', '103000')])",3.0,SingleFamily,1352.0,1985.0,141000.0,34.262365,-84.35300699999999,11/13/2000,"186,100",103000.0,"OrderedDict([('@id', '23584'), ('@name', 'Ball Ground'), ('@type', 'city'), ('zindexValue', '186,100'), ('links', OrderedDict([('overview', 'http://www.zillow.com/local-info/GA-Ball-Ground/r_23584/'), ('forSaleByOwner', 'http://www.zillow.com/ball-ground-ga/fsbo/'), ('forSale', 'http://www.zillow.com/ball-ground-ga/')]))])"
185,105401076,,2344 Graham Knight Rd,REIDSVILLE,30453.0,,,SingleFamily,,,8800.0,31.981346999999996,-82.038967,,,,"OrderedDict([('@id', '24884'), ('@name', 'Glennville'), ('@type', 'city'), ('links', OrderedDict([('overview', 'http://www.zillow.com/local-info/GA-Glennville/r_24884/'), ('forSaleByOwner', 'http://www.zillow.com/glennville-ga/fsbo/'), ('forSale', 'http://www.zillow.com/glennville-ga/')]))])"
186,237721100,,91 Brycewood Trl,Dallas,30157.0,"OrderedDict([('@currency', 'USD'), ('#text', '5600')])",0.0,SingleFamily,,,19200.0,33.910194,-84.771431,5/7/2012,"132,700",5600.0,"OrderedDict([('@id', '24307'), ('@name', 'Dallas'), ('@type', 'city'), ('zindexValue', '132,700'), ('links', OrderedDict([('overview', 'http://www.zillow.com/local-info/GA-Dallas/r_24307/'), ('forSaleByOwner', 'http://www.zillow.com/dallas-ga/fsbo/'), ('forSale', 'http://www.zillow.com/dallas-ga/')]))])"
187,97242643,216814.0,29 Rosalyn Dr SW,ROME,30165.0,,,SingleFamily,2463.0,1979.0,182184.0,34.222633,-85.274745,,"116,800",,"OrderedDict([('@id', '13576'), ('@name', 'Rome'), ('@type', 'city'), ('zindexValue', '116,800'), ('links', OrderedDict([('overview', 'http://www.zillow.com/local-info/GA-Rome/r_13576/'), ('forSaleByOwner', 'http://www.zillow.com/rome-ga/fsbo/'), ('forSale', 'http://www.zillow.com/rome-ga/')]))])"
188,225476217,54028.0,109 Choestoe Falls Cir,Blairsville,30512.0,"OrderedDict([('@currency', 'USD'), ('#text', '47500')])",0.0,SingleFamily,,,36916.0,34.795577,-83.870469,7/11/2016,"183,400",47500.0,"OrderedDict([('@id', '51023'), ('@name', 'Blairsville'), ('@type', 'city'), ('zindexValue', '183,400'), ('links', OrderedDict([('overview', 'http://www.zillow.com/local-info/GA-Blairsville/r_51023/'), ('forSaleByOwner', 'http://www.zillow.com/blairsville-ga/fsbo/'), ('forSale', 'http://www.zillow.com/blairsville-ga/')]))])"
189,105430588,231962.0,1784 Ivylog Creek Rd,YOUNG HARRIS,30582.0,,,SingleFamily,1540.0,1992.0,230304.0,34.927797,-83.965775,,"183,400",,"OrderedDict([('@id', '51023'), ('@name', 'Blairsville'), ('@type', 'city'), ('zindexValue', '183,400'), ('links', OrderedDict([('overview', 'http://www.zillow.com/local-info/GA-Blairsville/r_51023/'), ('forSaleByOwner', 'http://www.zillow.com/blairsville-ga/fsbo/'), ('forSale', 'http://www.zillow.com/blairsville-ga/')]))])"
190,76589577,41078.0,103 Dogwood Cir,FORT VALLEY,31030.0,"OrderedDict([('@currency', 'USD'), ('#text', '30000')])",3.0,SingleFamily,1525.0,1972.0,75100.0,32.520396999999996,-83.904251,5/2/2018,"78,700",30000.0,"OrderedDict([('@id', '4782'), ('@name', 'Fort Valley'), ('@type', 'city'), ('zindexValue', '78,700'), ('links', OrderedDict([('overview', 'http://www.zillow.com/local-info/GA-Fort-Valley/r_4782/'), ('forSaleByOwner', 'http://www.zillow.com/fort-valley-ga/fsbo/'), ('forSale', 'http://www.zillow.com/fort-valley-ga/')]))])"
191,112814943,417908.0,500 Murphy Rd,LAGRANGE,30240.0,,3.0,SingleFamily,4421.0,1995.0,410620.0,32.966352,-85.042259,,,,"OrderedDict([('@id', '52840'), ('@name', 'Lagrange'), ('@type', 'city'), ('links', OrderedDict([('overview', 'http://www.zillow.com/local-info/GA-Lagrange/r_52840/'), ('forSaleByOwner', 'http://www.zillow.com/lagrange-ga/fsbo/'), ('forSale', 'http://www.zillow.com/lagrange-ga/')]))])"
192,221623605,240303.0,1306 Briar Bay Rd,Riceboro,31323.0,,3.0,SingleFamily,4110.0,1976.0,174207.0,31.722915999999998,-81.502062,,,,"OrderedDict([('@id', '33649'), ('@name', 'Riceboro'), ('@type', 'city'), ('links', OrderedDict([('overview', 'http://www.zillow.com/local-info/GA-Riceboro/r_33649/'), ('forSaleByOwner', 'http://www.zillow.com/riceboro-ga/fsbo/'), ('forSale', 'http://www.zillow.com/riceboro-ga/')]))])"
193,35768007,66227.0,1731 Rock Cut Rd,CONLEY,30288.0,"OrderedDict([('@currency', 'USD'), ('#text', '65000')])",3.0,SingleFamily,1040.0,1965.0,44801.0,33.637640999999995,-84.332352,3/12/2018,,65000.0,"OrderedDict([('@id', '31011'), ('@name', 'Conley'), ('@type', 'city'), ('links', OrderedDict([('overview', 'http://www.zillow.com/local-info/GA-Conley/r_31011/'), ('forSaleByOwner', 'http://www.zillow.com/conley-ga/fsbo/'), ('forSale', 'http://www.zillow.com/conley-ga/')]))])"
194,35808264,171060.0,2106 Fair Ridge Ct,JONESBORO,30236.0,"OrderedDict([('@currency', 'USD'), ('#text', '127000')])",4.0,SingleFamily,2024.0,1992.0,134077.0,33.495694,-84.3226,8/31/2013,,127000.0,
195,2088962343,140623.0,595 Highway 441,Mc Rae Helena,31055.0,,4.0,SingleFamily,2526.0,1969.0,,32.043799,-82.9089,,,,"OrderedDict([('@id', '32767'), ('@name', 'Mc Rae'), ('@type', 'city'), ('links', OrderedDict([('overview', 'http://www.zillow.com/local-info/GA-Mc-Rae/r_32767/'), ('forSaleByOwner', 'http://www.zillow.com/mc-rae-ga/fsbo/'), ('forSale', 'http://www.zillow.com/mc-rae-ga/')]))])"
196,49934264,,294 Red Cloud Dr # 4,Waleska,30183.0,"OrderedDict([('@currency', 'USD'), ('#text', '5500')])",0.0,VacantResidentialLand,,,7500.0,34.292826,-84.604,2/21/2017,"186,000",5500.0,"OrderedDict([('@id', '27739'), ('@name', 'Waleska'), ('@type', 'city'), ('zindexValue', '186,000'), ('links', OrderedDict([('overview', 'http://www.zillow.com/local-info/GA-Waleska/r_27739/'), ('forSaleByOwner', 'http://www.zillow.com/waleska-ga/fsbo/'), ('forSale', 'http://www.zillow.com/waleska-ga/')]))])"
197,110791550,,1850 Newport Rd,Blue Ridge,30513.0,"OrderedDict([('@currency', 'USD'), ('#text', '152300')])",3.0,Miscellaneous,1680.0,2005.0,167812.0,34.739627,-84.229487,2/24/2006,"191,400",152300.0,"OrderedDict([('@id', '17417'), ('@name', 'Cherrylog'), ('@type', 'city'), ('zindexValue', '191,400'), ('links', OrderedDict([('overview', 'http://www.zillow.com/local-info/GA-Cherrylog/r_17417/'), ('forSaleByOwner', 'http://www.zillow.com/cherrylog-ga/fsbo/'), ('forSale', 'http://www.zillow.com/cherrylog-ga/')]))])"
198,83349353,309774.0,5138 Timbercrest Dr,GAINESVILLE,30504.0,"OrderedDict([('@currency', 'USD'), ('#text', '282000')])",3.0,SingleFamily,2981.0,1999.0,284200.0,34.241046000000004,-83.913712,3/11/2002,"160,900",282000.0,"OrderedDict([('@id', '24822'), ('@name', 'Gainesville'), ('@type', 'city'), ('zindexValue', '160,900'), ('links', OrderedDict([('overview', 'http://www.zillow.com/local-info/GA-Gainesville/r_24822/'), ('forSaleByOwner', 'http://www.zillow.com/gainesville-ga/fsbo/'), ('forSale', 'http://www.zillow.com/gainesville-ga/')]))])"
199,110795510,34009.0,5273 W Able St,STAPLETON,30823.0,"OrderedDict([('@currency', 'USD'), ('#text', '12500')])",,SingleFamily,958.0,,22604.0,33.210833,-82.469883,8/14/2006,,12500.0,"OrderedDict([('@id', '29273'), ('@name', 'Stapleton'), ('@type', 'city'), ('links', OrderedDict([('overview', 'http://www.zillow.com/local-info/GA-Stapleton/r_29273/'), ('forSaleByOwner', 'http://www.zillow.com/stapleton-ga/fsbo/'), ('forSale', 'http://www.zillow.com/stapleton-ga/')]))])"
200,98008578,565938.0,2478 Red Wine Oak Dr,BRASELTON,30517.0,"OrderedDict([('@currency', 'USD'), ('#text', '471359')])",4.0,SingleFamily,3357.0,2015.0,497200.0,34.109992,-83.841661,6/30/2015,"275,900",471359.0,"OrderedDict([('@id', '41949'), ('@name', 'Braselton'), ('@type', 'city'), ('zindexValue', '275,900'), ('links', OrderedDict([('overview', 'http://www.zillow.com/local-info/GA-Braselton/r_41949/'), ('forSaleByOwner', 'http://www.zillow.com/braselton-ga/fsbo/'), ('forSale', 'http://www.zillow.com/braselton-ga/')]))])"
201,94736632,100213.0,136 Zinnia Rd,REBECCA,31783.0,,3.0,SingleFamily,1528.0,1956.0,77288.0,31.791185,-83.445301,,,,"OrderedDict([('@id', '28956'), ('@name', 'Rebecca'), ('@type', 'city'), ('links', OrderedDict([('overview', 'http://www.zillow.com/local-info/GA-Rebecca/r_28956/'), ('forSaleByOwner', 'http://www.zillow.com/rebecca-ga/fsbo/'), ('forSale', 'http://www.zillow.com/rebecca-ga/')]))])"
202,101465743,,436 Old Winder Jefferson Hwy,JEFFERSON,30549.0,,,SingleFamily,1736.0,1952.0,13188.0,34.054632,-83.65686600000001,,,,
203,49860096,65738.0,736 Highway 127,Kathleen,31047.0,"OrderedDict([('@currency', 'USD'), ('#text', '84000')])",3.0,Mobile,1782.0,1993.0,28642.0,32.511899,-83.6506,12/9/2005,"149,400",84000.0,"OrderedDict([('@id', '30522'), ('@name', 'Bonaire'), ('@type', 'city'), ('zindexValue', '149,400'), ('links', OrderedDict([('overview', 'http://www.zillow.com/local-info/GA-Bonaire/r_30522/'), ('forSaleByOwner', 'http://www.zillow.com/bonaire-ga/fsbo/'), ('forSale', 'http://www.zillow.com/bonaire-ga/')]))])"
204,70438058,31067.0,384 Smyrna Church Rd,Molena,30258.0,"OrderedDict([('@currency', 'USD'), ('#text', '100')])",4.0,Mobile,672.0,1978.0,28283.0,32.987209,-84.400301,4/1/2018,"121,000",100.0,"OrderedDict([('@id', '23311'), ('@name', 'Molena'), ('@type', 'city'), ('zindexValue', '121,000'), ('links', OrderedDict([('overview', 'http://www.zillow.com/local-info/GA-Molena/r_23311/'), ('forSaleByOwner', 'http://www.zillow.com/molena-ga/fsbo/'), ('forSale', 'http://www.zillow.com/molena-ga/')]))])"
205,228813001,76643.0,357 Wise Rd,Morganton,30560.0,,0.0,SingleFamily,,,9464.0,34.87305,-84.13153299999999,,,,"OrderedDict([('@id', '39863'), ('@name', 'Morganton'), ('@type', 'city'), ('links', OrderedDict([('overview', 'http://www.zillow.com/local-info/GA-Morganton/r_39863/'), ('forSaleByOwner', 'http://www.zillow.com/morganton-ga/fsbo/'), ('forSale', 'http://www.zillow.com/morganton-ga/')]))])"
206,59913089,276899.0,711 Wheeler St,SAVANNAH,31405.0,"OrderedDict([('@currency', 'USD'), ('#text', '222000')])",3.0,SingleFamily,2166.0,1938.0,193700.0,32.014134999999996,-81.09886999999999,5/7/2016,,222000.0,"OrderedDict([('@id', '274843'), ('@name', 'Oakdale'), ('@type', 'neighborhood'), ('links', OrderedDict([('overview', 'http://www.zillow.com/local-info/GA-Savannah/Oakdale/r_274843/'), ('forSaleByOwner', 'http://www.zillow.com/oakdale-savannah-ga/fsbo/'), ('forSale', 'http://www.zillow.com/oakdale-savannah-ga/')]))])"
207,241702866,49829.0,209 Railroad St,Berlin,31722.0,"OrderedDict([('@currency', 'USD'), ('#text', '39000')])",3.0,Mobile,1056.0,1996.0,19558.0,31.065890999999997,-83.623423,1/28/2015,"87,500",39000.0,"OrderedDict([('@id', '12849'), ('@name', 'Moultrie'), ('@type', 'city'), ('zindexValue', '87,500'), ('links', OrderedDict([('overview', 'http://www.zillow.com/local-info/GA-Moultrie/r_12849/'), ('forSaleByOwner', 'http://www.zillow.com/moultrie-ga/fsbo/'), ('forSale', 'http://www.zillow.com/moultrie-ga/')]))])"
208,94967462,211877.0,2323 Jackson Bridge Rd,LAVONIA,30553.0,"OrderedDict([('@currency', 'USD'), ('#text', '189000')])",3.0,SingleFamily,1629.0,1985.0,161863.0,34.351552000000005,-83.18626,2/22/2017,"133,100",189000.0,"OrderedDict([('@id', '18964'), ('@name', 'Lavonia'), ('@type', 'city'), ('zindexValue', '133,100'), ('links', OrderedDict([('overview', 'http://www.zillow.com/local-info/GA-Lavonia/r_18964/'), ('forSaleByOwner', 'http://www.zillow.com/lavonia-ga/fsbo/'), ('forSale', 'http://www.zillow.com/lavonia-ga/')]))])"
209,91057053,956644.0,1101 Curtright Pl,GREENSBORO,30642.0,,4.0,SingleFamily,4100.0,2007.0,685924.0,33.412,-83.200369,,,,"OrderedDict([('@id', '4985'), ('@name', 'Greensboro'), ('@type', 'city'), ('links', OrderedDict([('overview', 'http://www.zillow.com/local-info/GA-Greensboro/r_4985/'), ('forSaleByOwner', 'http://www.zillow.com/greensboro-ga/fsbo/'), ('forSale', 'http://www.zillow.com/greensboro-ga/')]))])"
210,14143530,,119 Vernon St,SAVANNAH,31406.0,"OrderedDict([('@currency', 'USD'), ('#text', '8000')])",,SingleFamily,,,34400.0,31.949821999999998,-81.112365,9/28/2013,"224,700",8000.0,"OrderedDict([('@id', '130309'), ('@name', 'Montgomery'), ('@type', 'city'), ('zindexValue', '224,700'), ('links', OrderedDict([('overview', 'http://www.zillow.com/local-info/GA-Montgomery/r_130309/'), ('forSaleByOwner', 'http://www.zillow.com/montgomery-ga/fsbo/'), ('forSale', 'http://www.zillow.com/montgomery-ga/')]))])"
211,105450554,82319.0,206 Whitehall St,OAKFIELD,31772.0,"OrderedDict([('@currency', 'USD'), ('#text', '125900')])",,SingleFamily,1869.0,,96746.0,31.775648999999998,-83.968502,9/11/2006,,125900.0,"OrderedDict([('@id', '26251'), ('@name', 'Oakfield'), ('@type', 'city'), ('links', OrderedDict([('overview', 'http://www.zillow.com/local-info/GA-Oakfield/r_26251/'), ('forSaleByOwner', 'http://www.zillow.com/oakfield-ga/fsbo/'), ('forSale', 'http://www.zillow.com/oakfield-ga/')]))])"
212,14664157,496924.0,300 Highlands Trce,ROSWELL,30075.0,"OrderedDict([('@currency', 'USD'), ('#text', '370000')])",4.0,SingleFamily,3276.0,1985.0,397800.0,34.007202,-84.381242,3/9/2005,"360,900",370000.0,"OrderedDict([('@id', '54219'), ('@name', 'Roswell'), ('@type', 'city'), ('zindexValue', '360,900'), ('links', OrderedDict([('overview', 'http://www.zillow.com/local-info/GA-Roswell/r_54219/'), ('forSaleByOwner', 'http://www.zillow.com/roswell-ga/fsbo/'), ('forSale', 'http://www.zillow.com/roswell-ga/')]))])"
213,54056385,99788.0,175 Laurelwood Cir,ROSSVILLE,30741.0,,,SingleFamily,1608.0,1973.0,68946.0,34.901061,-85.32358,,,,
214,89576711,955068.0,547 Old Mountain Rd NW,KENNESAW,30152.0,"OrderedDict([('@currency', 'USD'), ('#text', '460000')])",6.0,SingleFamily,5746.0,2008.0,867470.0,33.968133,-84.697461,7/25/2013,"147,900",460000.0,"OrderedDict([('@id', '53985'), ('@name', 'Powder Springs'), ('@type', 'city'), ('zindexValue', '147,900'), ('links', OrderedDict([('overview', 'http://www.zillow.com/local-info/GA-Powder-Springs/r_53985/'), ('forSaleByOwner', 'http://www.zillow.com/powder-springs-ga/fsbo/'), ('forSale', 'http://www.zillow.com/powder-springs-ga/')]))])"
215,105346978,185057.0,1111 Launius Rd,GOOD HOPE,30641.0,,,SingleFamily,2280.0,1991.0,138911.0,33.739284999999995,-83.543772,,"170,400",,"OrderedDict([('@id', '11646'), ('@name', 'Good Hope'), ('@type', 'city'), ('zindexValue', '170,400'), ('links', OrderedDict([('overview', 'http://www.zillow.com/local-info/GA-Good-Hope/r_11646/'), ('forSaleByOwner', 'http://www.zillow.com/good-hope-ga/fsbo/'), ('forSale', 'http://www.zillow.com/good-hope-ga/')]))])"
216,105178158,102259.0,28131 Highway 121,FOLKSTON,31537.0,,,Mobile,2464.0,2003.0,67840.0,30.738688,-82.072484,,,,
217,111251736,32061.0,946 Joe Findley Rd,ROYSTON,30662.0,"OrderedDict([('@currency', 'USD'), ('#text', '30000')])",3.0,SingleFamily,1150.0,1980.0,58103.0,34.246451,-83.069346,8/29/2018,,30000.0,
218,93113185,321235.0,2903 Rumble Rd,JULIETTE,31046.0,"OrderedDict([('@currency', 'USD'), ('#text', '7000')])",4.0,SingleFamily,2352.0,2008.0,22400.0,32.987136,-83.799018,1/10/2017,"171,700",7000.0,"OrderedDict([('@id', '25342'), ('@name', 'Juliette'), ('@type', 'city'), ('zindexValue', '171,700'), ('links', OrderedDict([('overview', 'http://www.zillow.com/local-info/GA-Juliette/r_25342/'), ('forSaleByOwner', 'http://www.zillow.com/juliette-ga/fsbo/'), ('forSale', 'http://www.zillow.com/juliette-ga/')]))])"
219,49845585,160631.0,2516 Johnsbrooke Dr,LITHIA SPRINGS,30122.0,"OrderedDict([('@currency', 'USD'), ('#text', '108700')])",3.0,SingleFamily,1545.0,1995.0,140000.0,33.740878,-84.658514,3/7/1996,"125,700",108700.0,"OrderedDict([('@id', '52990'), ('@name', 'Lithia Springs'), ('@type', 'city'), ('zindexValue', '125,700'), ('links', OrderedDict([('overview', 'http://www.zillow.com/local-info/GA-Lithia-Springs/r_52990/'), ('forSaleByOwner', 'http://www.zillow.com/lithia-springs-ga/fsbo/'), ('forSale', 'http://www.zillow.com/lithia-springs-ga/')]))])"
220,82494795,89898.0,5075 Forrest Rd,Hogansville,30230.0,"OrderedDict([('@currency', 'USD'), ('#text', '24900')])",3.0,SingleFamily,1392.0,1980.0,85900.0,33.141193,-84.805497,9/27/2013,,24900.0,
221,76329483,23639.0,4429 Elkan Ave,MACON,31206.0,"OrderedDict([('@currency', 'USD'), ('#text', '13500')])",3.0,SingleFamily,866.0,1958.0,15512.0,32.781346,-83.702729,3/2/2012,"70,400",13500.0,"OrderedDict([('@id', '32626'), ('@name', 'Macon'), ('@type', 'city'), ('zindexValue', '70,400'), ('links', OrderedDict([('overview', 'http://www.zillow.com/local-info/GA-Macon/r_32626/'), ('forSaleByOwner', 'http://www.zillow.com/macon-ga/fsbo/'), ('forSale', 'http://www.zillow.com/macon-ga/')]))])"
222,228857292,431720.0,566 Longview Dr,Hamilton,31811.0,"OrderedDict([('@currency', 'USD'), ('#text', '260000')])",4.0,SingleFamily,3135.0,1950.0,206329.0,32.687571999999996,-85.101763,9/21/2005,"192,200",260000.0,"OrderedDict([('@id', '28800'), ('@name', 'Hamilton'), ('@type', 'city'), ('zindexValue', '192,200'), ('links', OrderedDict([('overview', 'http://www.zillow.com/local-info/GA-Hamilton/r_28800/'), ('forSaleByOwner', 'http://www.zillow.com/hamilton-ga/fsbo/'), ('forSale', 'http://www.zillow.com/hamilton-ga/')]))])"
223,80419271,,211 Lowery Rd,Kingston,30145.0,,0.0,SingleFamily,,,307315.0,34.151841,-84.97176800000001,,,,
224,76466896,47421.0,12286 Us Highway 221 S,BARTOW,30413.0,"OrderedDict([('@currency', 'USD'), ('#text', '34900')])",3.0,SingleFamily,2212.0,1983.0,115884.0,32.82098,-82.49758800000001,7/23/2014,,34900.0,
225,105270305,139400.0,503 W Main St,Gibson,30810.0,,,SingleFamily,2355.0,1957.0,96071.0,33.231246,-82.60377199999999,,,,
226,76574543,79097.0,5602 Monmouth Dr,COLUMBUS,31907.0,,3.0,SingleFamily,1388.0,1969.0,85340.0,32.428963,-84.897299,,"88,200",,"OrderedDict([('@id', '17539'), ('@name', 'Columbus'), ('@type', 'city'), ('zindexValue', '88,200'), ('links', OrderedDict([('overview', 'http://www.zillow.com/local-info/GA-Columbus/r_17539/'), ('forSaleByOwner', 'http://www.zillow.com/columbus-ga/fsbo/'), ('forSale', 'http://www.zillow.com/columbus-ga/')]))])"
227,105436400,,857 Cool Breeze Ln,ODUM,31555.0,,,Mobile,1792.0,2003.0,54407.0,31.801853,-82.036284,,"132,700",,"OrderedDict([('@id', '36175'), ('@name', 'Odum'), ('@type', 'city'), ('zindexValue', '132,700'), ('links', OrderedDict([('overview', 'http://www.zillow.com/local-info/GA-Odum/r_36175/'), ('forSaleByOwner', 'http://www.zillow.com/odum-ga/fsbo/'), ('forSale', 'http://www.zillow.com/odum-ga/')]))])"
